Station,x,y,lat,lng
Aberdare Rail Station,300400,202800,51.71505791,-3.443083446
Brent Cross West Station,523085,186998,51.568429,-0.22548819
Aberdour Rail Station,319100,685400,56.05459191,-3.300560017
Aberdovey Rail Station,260600,296000,52.5439566,-4.057067068
Aber Rail Station,314870,186950,51.57496554,-3.229828477
Abergele & Pensarn Rail Station,294612,378681,53.29457303,-3.582621988
Abercynon North Rail Station,308292,194891,51.64531321,-3.326803256
Abercynon Rail Station,308166,194686,51.64344991,-3.328569861
Aberdeen Rail Station,394127,805872,57.14370402,-2.098685122
Abererch Rail Station,240400,336100,52.89858307,-4.374175437
Abergavenny Rail Station,330500,213600,51.81668982,-3.009646799
Aberystwyth Rail Station,258500,281600,52.41404495,-4.081893523
Abbey Wood (London) Rail Station,547374,179035,51.49106247,0.121394115
Acton Bridge Rail Station,359870,374560,53.2665072,-2.603126524
Achanalt Rail Station,226020,861473,57.60959584,-4.913851258
Achnashellach Rail Station,200290,848440,57.48207427,-5.333055256
Auchinleck Rail Station,255000,622000,55.47027326,-4.295349187
Achnasheen Rail Station,216403,858519,57.57928965,-5.072332139
Acklington Rail Station,422200,601500,55.30709824,-1.651834613
Acle Rail Station,639900,310000,52.63468202,1.543915276
Acocks Green Rail Station,412400,283500,52.44932278,-1.818975411
Accrington Rail Station,375730,428575,53.75297118,-2.369547778
Acton Central Rail Station,520645,180295,51.50871628,-0.262970615
Acton Main Line Rail Station,520360,181230,51.51718015,-0.266756362
Adderley Park Rail Station,409880,287250,52.48308594,-1.85594442
Addiewell Rail Station,299500,662300,55.84340895,-3.606526412
Adisham Rail Station,623391,153976,51.24120154,1.199089268
Adlington (Cheshire) Rail Station,391200,380300,53.31955398,-2.133562473
Addlestone Rail Station,505587,164866,51.37304566,-0.484456717
Adlington (Lancs) Rail Station,360200,413135,53.61324428,-2.603070813
Adwick Rail Station,454375,408725,53.57232072,-1.180356207
Aughton Park Rail Station,340790,406775,53.55424742,-2.895220814
Aigburth Rail Station,338400,385700,53.36456492,-2.927154925
Ainsdale Rail Station,331101,412224,53.60203226,-3.042652009
Aintree Rail Station,336625,397890,53.47390962,-2.956280314
Airbles Rail Station,275034,656191,55.7828331,-3.994192441
Airdrie Rail Station,276000,665200,55.8639788,-3.982912064
Newcastle Airport Metro Station,418566,571308,55.03594907,-1.71104651
Albany Park Rail Station,547855,172860,51.43545265,0.125737156
Albrighton Rail Station,381900,304500,52.63794225,-2.268899944
Alderley Edge Rail Station,384317,378563,53.30378013,-2.236799069
Aldermaston Rail Station,460100,167345,51.4019617,-1.13742381
Aldershot Rail Station,486656,150424,51.24641838,-0.759859799
Aldrington Rail Station,527984,105666,50.83638384,-0.183821434
Liverpool South Parkway Rail Station,340921,384909,53.35774409,-2.889127765
Alexandra Palace Rail Station,530295,190460,51.597924,-0.120235139
Alfreton Rail Station,442300,356100,53.10043172,-1.369696072
Allens West Rail Station,441449,514558,54.52462276,-1.361116692
Alloa Rail Station,288800,693115,56.11778919,-3.790055622
Alness Rail Station,266000,869400,57.69439412,-4.249716285
Alnmouth Rail Station,423115,611040,55.39277758,-1.636637659
Alresford (Essex) Rail Station,606525,221515,51.85400079,0.997436588
Alsager Rail Station,380070,355130,53.09300334,-2.299057533
Aylesham Rail Station,624182,152457,51.2272543,1.209452905
Althorne Rail Station,590524,197929,51.64787047,0.752483563
Altnabreac Rail Station,300340,945680,58.38814828,-3.706280219
Alton Rail Station,472352,139697,51.15196879,-0.9669132
Althorpe Rail Station,483960,410625,53.58550079,-0.733182201
Altrincham Rail Station,377026,387931,53.38771657,-2.346888786
Alvechurch Rail Station,402300,272000,52.34607059,-1.967660494
Alexandria Rail Station,239300,679900,55.98508315,-4.577484236
Alexandra Parade Rail Station,261747,665542,55.86317092,-4.210648008
Ambergate Rail Station,434900,351600,53.06051633,-1.480697424
Amersham Rail Station,496379,198188,51.6742058,-0.607596056
Amberley Rail Station,502632,111812,50.89668002,-0.541992327
Ammanford Rail Station,262400,212700,51.79597473,-3.996734888
Ancaster Rail Station,498400,344375,52.98768736,-0.535623652
Andover Rail Station,435565,145938,51.21154688,-1.492232913
Anderston Rail Station,257960,665300,55.85989697,-4.270979043
Anerley Rail Station,534605,169900,51.41215299,-0.06588584
Angel Road Rail Station,535200,192200,51.61240493,-0.048791341
Angmering Rail Station,506513,102979,50.81657531,-0.48939394
Annan Rail Station,319300,566200,54.98383527,-3.262580458
Ansdell & Fairhaven Rail Station,334601,427689,53.74146228,-2.993033951
Anniesland Rail Station,254880,668683,55.88935027,-4.32195683
Appleby Rail Station,368640,520680,54.58034643,-2.486692231
Appledore (Kent) Rail Station,597566,129760,51.03323729,0.81634166
Apperley Bridge Rail Station,419454,438429,53.84174897,-1.70582848
Appley Bridge Rail Station,352475,409360,53.57867074,-2.719252098
Appleford Rail Station,452542,193698,51.63964122,-1.242141404
Apsley Rail Station,506245,204874,51.73252176,-0.462934733
Arbroath Rail Station,363900,741000,56.55957374,-2.588931394
Arrochar & Tarbet Rail Station,231200,704600,56.20397079,-4.722770041
Ardgay Rail Station,260030,890446,57.88145239,-4.362089206
Ardlui Rail Station,231700,715500,56.30196654,-4.721657376
Ardrossan Harbour Rail Station,222540,642090,55.63987223,-4.821110377
Ardrossan South Beach Rail Station,223799,642211,55.64141617,-4.801211395
Ardrossan Town Rail Station,223070,642050,55.63970647,-4.8126752
Ardwick Rail Station,385871,397223,53.47154983,-2.21432181
Argyle Street Rail Station,259220,664970,55.85730394,-4.250693884
Arisaig Rail Station,166400,786700,56.91254639,-5.839077678
Arlesey Rail Station,519045,237820,52.02603126,-0.266319759
Armadale (W Lothian) Rail Station,294050,667140,55.88570976,-3.695412599
Armathwaite Rail Station,350475,546340,54.80946515,-2.772071043
Arnside Rail Station,346070,478870,54.20272858,-2.828241446
Arram Rail Station,503520,444275,53.88434368,-0.426570052
Arundel Rail Station,502444,106417,50.84821483,-0.546174218
Ascot Rail Station,492200,168300,51.40624365,-0.675833169
Ascott-under-Wychwood Rail Station,430114,218841,51.86734078,-1.56405264
Ashford (Surrey) Rail Station,506580,171947,51.4365072,-0.468070916
Ashfield Rail Station,259427,668485,55.88892181,-4.249214115
Ashburys Rail Station,387191,397229,53.47163781,-2.19443633
Ashchurch for Tewkesbury Rail Station,392630,233390,51.99890404,-2.108759944
Ashtead Rail Station,518040,159000,51.31787379,-0.307571685
Ashford International Rail Station,601282,142204,51.14370586,0.876197379
Ash Rail Station,489934,150834,51.24959732,-0.712805387
Ashley Rail Station,377370,384370,53.35572366,-2.341460426
Ashton-under-Lyne Rail Station,393840,399400,53.49127289,-2.094312271
Ashurst (Kent) Rail Station,550726,138801,51.1286628,0.152652203
Ash Vale Rail Station,489273,153342,51.27224694,-0.721648509
Ashwell & Morden Rail Station,529770,238615,52.03077215,-0.109788837
Askam Rail Station,321500,477688,54.18892964,-3.204511191
Aslockton Rail Station,474130,339920,52.95154976,-0.898097523
Aspley Guise Rail Station,493944,236751,52.02123685,-0.632334423
Aspatria Rail Station,314390,541260,54.75895619,-3.331873603
Aston Rail Station,408790,289600,52.50423066,-1.871933538
Attadale Rail Station,192456,839125,57.39503656,-5.455577052
Atherton Rail Station,368347,403716,53.52914388,-2.478971993
Atherstone Rail Station,430400,298000,52.5789712,-1.552811308
Attenborough Rail Station,451790,334585,52.90621295,-1.23141548
Attleborough Rail Station,605177,295033,52.51454794,1.022347746
Audley End Rail Station,551610,236300,52.00443984,0.207305691
Aviemore Rail Station,289566,812339,57.1885118,-3.828867178
Avignon Central Rail Station,637870,136000,51.07399826,1.39427359
Avoncliff Rail Station,380500,160100,51.33965085,-2.281325279
Avonmouth Rail Station,351544,178168,51.50036216,-2.699466108
Axminster Rail Station,329260,98225,50.7792712,-3.004723097
Aylesford Rail Station,572017,158687,51.30131784,0.466170684
Aylesbury Rail Station,481779,213470,51.81389058,-0.815095905
Aylesbury Vale Parkway Rail Station,478641,215341,51.83115902,-0.860182342
Ayr Rail Station,234060,621390,55.45814203,-4.625875615
Bache Rail Station,340545,368340,53.20878566,-2.891670046
Burnage Rail Station,385764,391618,53.42116682,-2.215678114
Bagshot Rail Station,491391,163627,51.36436752,-0.688661911
Baildon Rail Station,416305,439360,53.85022429,-1.753636189
Balcombe Rail Station,530670,130115,51.05552166,-0.136933678
Baldock Rail Station,524540,234264,51.99287121,-0.187563674
Balham Rail Station,528500,173200,51.44322487,-0.152424416
Baillieston Rail Station,267750,663275,55.84450099,-4.1136984
Balloch Rail Station,239000,681900,56.00293367,-4.583485406
Balmossie Rail Station,348417,731698,56.47456561,-2.838955776
Bamford Rail Station,420800,382500,53.33899975,-1.689081726
Banavie Rail Station,211300,776700,56.84330827,-5.095425585
Bangor (Gwynedd) Rail Station,257500,371600,53.22228257,-4.135879932
Banstead Rail Station,524588,160432,51.32934885,-0.213158852
Barassie Rail Station,232900,632900,55.56105871,-4.651138498
Bare Lane Rail Station,345439,464613,54.0745414,-2.835330419
Bargoed Rail Station,315100,200000,51.69230918,-3.229679557
Barking Rail Station,544410,184340,51.53949472,0.080902514
Barlaston Rail Station,388800,338400,52.94287216,-2.168111108
Barming Rail Station,572970,156891,51.2848952,0.478958203
Barnes Rail Station,522200,175700,51.46708609,-0.242164211
Barrow-in-Furness Rail Station,319955,469932,54.11900014,-3.226120335
Barrow upon Soar Rail Station,457820,317200,52.74933565,-1.14484294
Barry Rail Station,310700,167200,51.3967826,-3.284984366
Barry Docks Rail Station,312400,167800,51.40244166,-3.260703348
Barry Island Rail Station,311500,166700,51.39241342,-3.27336342
Barrow Haven Rail Station,506200,423530,53.69742092,-0.392955159
Basildon Rail Station,570368,188330,51.56810649,0.456788965
Bat & Ball Rail Station,553100,156800,51.28976078,0.194227574
Bath Spa Rail Station,375248,164353,51.37768623,-2.35701815
Batley Rail Station,424985,423790,53.70994134,-1.622952454
Battersea Park Rail Station,528745,176960,51.47695975,-0.14753344
Battle Rail Station,575470,115569,50.91291557,0.494702895
Bayford Rail Station,531537,208274,51.75771643,-0.095609939
Birchgrove Rail Station,316711,180978,51.52155619,-3.201853234
Beckenham Hill Rail Station,538040,171375,51.42458255,-0.01595103
Beckenham Junction Rail Station,537395,169850,51.41103511,-0.025812742
Beckenham Junction Rail Station,537380,169865,51.41117353,-0.02602248
Blackwater Rail Station,485320,159875,51.33158158,-0.776740936
Buckley Rail Station,329500,363400,53.1630358,-3.055925675
Birchington-on-Sea Rail Station,629849,169444,51.37749259,1.301408596
Beaconsfield Rail Station,494004,191144,51.61129124,-0.643822198
Bicester North Rail Station,458550,223112,51.90348276,-1.150383403
Bicester Village Rail Station,458675,221950,51.89302342,-1.148764133
Bricket Wood Rail Station,513482,202017,51.70542789,-0.359114962
Bedhampton Rail Station,470781,106529,50.85395672,-0.99582833
Bedminster Rail Station,358800,171400,51.44008788,-2.594148945
Bidston Rail Station,328400,390800,53.40913653,-3.078560579
Bearley Rail Station,417149,260721,52.24441042,-1.750255281
Beasdale Rail Station,170900,785000,56.89955381,-5.763801474
Beauly Rail Station,252005,845807,57.47828254,-4.469865777
Bebington Rail Station,333300,385000,53.35765386,-3.003634673
Beccles Rail Station,642600,290500,52.4585225,1.569493568
Bedford Rail Station,504167,249744,52.13618736,-0.4794423
Bedworth Rail Station,436270,286952,52.4792967,-1.467392077
Bedwyn Rail Station,428020,164586,51.37964003,-1.598786096
Bekesbourne Rail Station,618942,156029,51.26135756,1.13670784
Belmont Rail Station,525545,162065,51.3438148,-0.198855045
Bellingham Rail Station,537780,172295,51.43291306,-0.019330724
Belper Rail Station,434808,347510,53.02375839,-1.482510342
Belvedere Rail Station,549515,179215,51.4921182,0.152286191
Bempton Rail Station,519000,471730,54.12765935,-0.180456763
Benfleet Rail Station,577733,185893,51.54394507,0.561713471
Bere Alston Rail Station,244000,67400,50.48559364,-4.200354478
Bere Ferrers Rail Station,245230,63545,50.45127694,-4.18143423
Berkhamsted Rail Station,499336,208139,51.76313385,-0.5620129
Bermuda Park Rail Station,435927,289412,52.50143363,-1.472177598
Berry Brow Rail Station,413761,413853,53.6210407,-1.793432077
Berwick (Sussex) Rail Station,552603,106774,50.84037829,0.1660177
Bescar Lane Rail Station,339605,414535,53.62385227,-2.91461053
Bedford St Johns Rail Station,505000,249015,52.12947815,-0.467500948
Beeston Rail Station,453370,336220,52.92075481,-1.207657889
Betws-y-Coed Rail Station,279500,356500,53.09206645,-3.800861336
Beverley Rail Station,503860,439600,53.84227351,-0.422980046
Bexhill Rail Station,574495,107536,50.84104243,0.477016708
Bexley Rail Station,549380,173435,51.44021948,0.147902586
Baglan Rail Station,274700,192300,51.61554075,-3.811135755
Bridge of Allan Rail Station,278530,697720,56.15663514,-3.957228511
Barnt Green Rail Station,400610,273670,52.36108827,-1.992466496
Birmingham International Rail Station,418728,283685,52.45080697,-1.725856666
Jewellery Quarter Rail Station,405990,287950,52.48943465,-1.913212746
Birmingham Moor Street Rail Station,407400,286800,52.47907921,-1.892472507
Birmingham New Street Rail Station,406875,286659,52.47781839,-1.900205346
Birmingham Snow Hill Rail Station,406950,287275,52.48335526,-1.899088459
Bush Hill Park Rail Station,533700,195400,51.64151854,-0.069221032
Bickley Rail Station,542370,168770,51.40010421,0.045240627
Biggleswade Rail Station,519241,244351,52.08467985,-0.261187114
Bilbrook Rail Station,387500,302900,52.62371784,-2.186087736
Billericay Rail Station,567500,195000,51.62888366,0.418629722
Billingshurst Rail Station,508803,125123,51.01520448,-0.450302154
Bingham Rail Station,470535,340160,52.95419066,-0.951543251
Birchwood Rail Station,365180,390785,53.41271814,-2.525307884
Birkbeck Rail Station,535335,169000,51.4038916,-0.055738658
Bishopton Rail Station,243769,670509,55.90226398,-4.500486466
Burntisland Rail Station,323300,685600,56.05708066,-3.233197745
Bitterne Rail Station,443890,113380,50.91822082,-1.376999471
Birkdale Rail Station,333018,415759,53.63404958,-3.014449609
Brockholes Rail Station,415340,411180,53.59697181,-1.769691218
Bucknell Rail Station,335577,273680,52.35737892,-2.947377837
Brockenhurst Rail Station,430140,102008,50.81684095,-1.573531003
Berkswell Rail Station,424400,277600,52.39588093,-1.642840294
Blaenau Ffestiniog Rail Station,269984,345894,52.99454837,-3.93859493
Blairhill Rail Station,272230,665585,55.86645081,-4.043290312
Blakedown Rail Station,388065,278725,52.40640079,-2.176865381
Blantyre Rail Station,269265,657975,55.7973256,-4.086970743
Blair Atholl Rail Station,287000,765300,56.76554598,-3.85022796
Blaydon Rail Station,418500,563500,54.96578852,-1.712580696
Blackhorse Road Rail Station,535800,189345,51.58660548,-0.04123566
Blackpool Pleasure Beach Rail Station,330665,432919,53.78795223,-3.053875955
Blackpool North Rail Station,331024,436693,53.82191481,-3.049274654
Blackpool South Rail Station,331008,434110,53.79870075,-3.048937812
Bleasby Rail Station,470920,349865,53.04136506,-0.943687436
London Blackfriars Rail Station,531714,180914,51.51180973,-0.103331992
Bellgrove Rail Station,260865,664850,55.85670422,-4.224373933
Beaulieu Road Rail Station,434957,106287,50.85504859,-1.504749467
Blackburn Rail Station,368500,427900,53.74651608,-2.479122052
Blackheath Rail Station,539640,176005,51.46579624,0.008871956
Blackridge Rail Station,290582,667064,55.88425139,-3.750796669
Blake Street Rail Station,410600,300800,52.60488474,-1.844914382
Belle Vue Rail Station,388113,396196,53.46237461,-2.180506959
Blundellsands & Crosby Rail Station,331100,399500,53.48768343,-3.039859775
Billingham Rail Station,446625,523620,54.6056061,-1.279719553
Bloxwich North Rail Station,398900,303075,52.62543623,-2.017684363
Bloxwich Rail Station,399320,302270,52.61820027,-2.011477826
Blackrod Rail Station,362400,410700,53.59152198,-2.569523943
Bellshill Rail Station,273245,660055,55.81706346,-4.024499084
Bletchley Rail Station,486859,233741,51.99533445,-0.736320418
Bolton-Upon-Dearne Rail Station,445745,402695,53.51894653,-1.311546023
Beltring Rail Station,568000,147800,51.20470872,0.403495596
Blythe Bridge Rail Station,395600,341200,52.96814227,-2.066961108
Bamber Bridge Rail Station,356500,425810,53.72686651,-2.660774978
Bramhall Rail Station,389210,384872,53.36061266,-2.163592604
Bramley (Hants) Rail Station,465518,159440,51.33029324,-1.061002674
Banbury Rail Station,446160,240427,52.06030818,-1.328132757
Brandon Rail Station,578447,287245,52.45400742,0.624731868
Bingley Rail Station,410800,439165,53.84861409,-1.837322286
Burnham (Berks) Rail Station,494008,181378,51.52350552,-0.646373739
Barnhill Rail Station,261025,667160,55.87748981,-4.223004877
Bank Hall Rail Station,334496,393867,53.43749336,-2.987511401
Ben Rhydding Rail Station,413400,447750,53.92571405,-1.797430057
Barnes Bridge Rail Station,521460,176230,51.47200852,-0.252630156
Burneside (Cumbria) Rail Station,350270,495765,54.35497978,-2.766676878
Barnsley Rail Station,434735,406535,53.55430079,-1.477164683
Barnetby Rail Station,505400,409900,53.575121,-0.409679626
Bentley (Hants) Rail Station,479211,143053,51.18123308,-0.868126804
Brentford Rail Station,517460,177865,51.48754691,-0.309650918
Bentham Rail Station,366715,468970,54.11551728,-2.510676151
Brunswick Rail Station,335173,387821,53.38324038,-2.976076867
Bodmin Parkway Rail Station,211030,64058,50.44586276,-4.662928351
Bodorgan Rail Station,238600,370200,53.20430194,-4.418003188
Bognor Regis Rail Station,493415,99389,50.78655906,-0.676178201
Bogston Rail Station,230738,674875,55.93704157,-4.711400976
Bolton Rail Station,371900,408700,53.57414325,-2.425824638
Bournemouth Rail Station,409660,91970,50.72727332,-1.864502947
Bookham Rail Station,512784,155640,51.28873866,-0.384020606
Bridge of Orchy Rail Station,230100,739400,56.51586699,-4.76299278
Bootle (Cumbria) Rail Station,309370,489305,54.29130201,-3.393861642
Bootle New Strand Rail Station,334040,395642,53.45338857,-2.994747243
Bootle Oriel Road Rail Station,333964,394890,53.44662072,-2.995733395
Bourg Saint Maurice Rail Station,637880,136000,51.07399412,1.394416074
Bourne End Rail Station,489456,187260,51.5771179,-0.71047346
Borth Rail Station,260900,290100,52.491027,-4.050176191
Borough Green & Wrotham Rail Station,560898,157424,51.29321924,0.306245061
Bosham Rail Station,481246,105435,50.84274762,-0.847431142
Boston Rail Station,532301,344118,52.97808994,-0.031003152
Bottesford Rail Station,481080,339260,52.94461452,-0.794842619
Botley Rail Station,452170,113260,50.91645427,-1.259236376
Bournville Rail Station,405100,281000,52.42696312,-1.92642383
Bow Brickhill Rail Station,489604,234787,52.00430073,-0.696077747
Bowes Park Rail Station,530245,191470,51.60701188,-0.120581874
Bowling Rail Station,244300,673700,55.93107941,-4.493841526
Box Hill & Westhumble Rail Station,516744,151865,51.25401185,-0.328489875
Bracknell Rail Station,486910,168969,51.41309189,-0.751703561
Bradford Forster Square Rail Station,416370,433430,53.79692441,-1.752961539
Bradford Interchange Rail Station,416594,432780,53.79107525,-1.749595701
Braintree Freeport Rail Station,576925,222100,51.86941614,0.568434815
Braintree Rail Station,576093,222736,51.87539168,0.556687108
Brampton (Suffolk) Rail Station,641200,283400,52.39543504,1.543810766
Branksome Rail Station,405760,91930,50.7269646,-1.9197582
Barbican Rail Station,532100,181800,51.51968172,-0.097441098
Broadbottom Rail Station,399000,393800,53.44097377,-2.01652077
Brondesbury Rail Station,524755,184450,51.54516569,-0.202308655
Brondesbury Park Rail Station,524225,183940,51.54069912,-0.210127586
Bradford-on-Avon Rail Station,382522,160678,51.34491418,-2.252326642
Bridgwater Rail Station,330790,136975,51.12785634,-2.990405477
Brading Rail Station,460950,86877,50.67837193,-1.138722332
Bridlington Rail Station,517930,466857,54.08413127,-0.19872031
Bardon Mill Rail Station,377918,564486,54.97449362,-2.346504436
Bordesley Rail Station,408400,286000,52.47187299,-1.877768634
Bredbury Rail Station,392755,391823,53.42315332,-2.110488037
Breich Rail Station,295600,660600,55.82731225,-3.668125136
Broughty Ferry Rail Station,346300,730900,56.46716025,-2.873152298
Broomfleet Rail Station,487700,427910,53.74020822,-0.671828314
Bargeddie Rail Station,270270,663955,55.85129129,-4.073807352
Bridgend Rail Station,290769,179848,51.50697351,-3.575275683
Brigg Rail Station,500400,406900,53.5491451,-0.486124677
London Road (Brighton) Rail Station,531315,105780,50.83666292,-0.136502265
Brighton Rail Station,531000,104920,50.82900477,-0.141280283
Barrhead Rail Station,249840,659320,55.80375299,-4.397283267
Barnham Rail Station,495897,104367,50.83090653,-0.639679871
Brighouse Rail Station,414660,422440,53.69819729,-1.779438837
Bridgeton Rail Station,260732,663992,55.8489626,-4.226056279
Brierfield Rail Station,384530,436438,53.8239804,-2.236489912
Brimsdown Rail Station,536315,197035,51.65558337,-0.03081735
Briton Ferry Rail Station,274200,194800,51.63789597,-3.819252246
Brithdir Rail Station,315200,202000,51.71030249,-3.228720206
Brixton Rail Station,531100,175500,51.46329893,-0.114183399
Brookmans Park Rail Station,524119,204007,51.72106176,-0.20454865
Conway Park Rail Station,332090,388990,53.39335835,-3.022670785
Birkenhead Central Rail Station,332205,388427,53.38831339,-3.020820654
Birkenhead North Rail Station,329790,390256,53.40443464,-3.057533143
Birkenhead Park Rail Station,331004,389456,53.39740532,-3.039100778
Brookwood Rail Station,495200,156954,51.30375793,-0.635747816
Berrylands Rail Station,519700,168070,51.39904518,-0.28071359
Burley Park Rail Station,427900,435165,53.81203018,-1.577767518
Bromborough Rail Station,334359,381001,53.32184636,-2.986895361
Bromborough Rake Rail Station,334200,381900,53.32990619,-2.989468926
Bromley Cross Rail Station,372914,413133,53.61404075,-2.41089878
Bramley (West Yorks) Rail Station,423990,434400,53.80534873,-1.637206174
Barmouth Rail Station,261200,315900,52.72289057,-4.05659575
Brampton (Cumbria) Rail Station,355055,559972,54.93239028,-2.702947192
Bromsgrove Rail Station,396704,269168,52.32060415,-2.049778592
Branchton Rail Station,225000,675500,55.94059564,-4.803548112
Brinnington Rail Station,391120,392823,53.43211646,-2.135119879
Barnehurst Rail Station,550115,176210,51.46495913,0.159646308
Burnham-on-Crouch Rail Station,594842,196511,51.63365783,0.814027939
Barnstaple Rail Station,255561,132541,51.07396953,-4.063116853
Berney Arms Rail Station,646000,305300,52.58978716,1.630375656
Broad Green Rail Station,340699,390337,53.40650329,-2.893483913
Brockley Rail Station,536420,175790,51.46464885,-0.037536609
Bromley North Rail Station,540380,169630,51.40832772,0.016992721
Bromley South Rail Station,540430,168702,51.39997632,0.017344113
Broome Rail Station,339900,280900,52.42277158,-2.885207499
Brora Rail Station,290657,904141,58.01295022,-3.852282866
Brough Rail Station,493870,426555,53.72696041,-0.578724153
Broxbourne Rail Station,537403,207228,51.7469104,-0.011086639
Barrhill Rail Station,222600,581600,55.09700465,-4.781781055
Barry Links Rail Station,354200,733700,56.49314888,-2.745441724
Burscough Bridge Rail Station,344457,412406,53.60525656,-2.840879835
Burscough Junction Rail Station,344465,411545,53.59751936,-2.840605247
Burnside (Strathclyde) Rail Station,262100,660380,55.81692628,-4.202389377
Broadstairs Rail Station,639131,167997,51.36067475,1.433560699
Bristol Temple Meads Rail Station,359700,172400,51.4491439,-2.58131525
Bristol Parkway Rail Station,362474,179570,51.51380121,-2.542163064
Barton-on-Humber Rail Station,502888,422510,53.68891863,-0.443436656
Burton Joyce Rail Station,464490,343330,52.98344184,-1.040877506
Brentwood Rail Station,559315,193035,51.61360524,0.299585881
Bruce Grove Rail Station,533795,190110,51.59395912,-0.069866988
Brundall Rail Station,632904,307967,52.61948351,1.439298961
Brundall Gardens Rail Station,631470,308340,52.62344331,1.418416392
Brunstane Rail Station,331330,672710,55.94251073,-3.100986009
Bruton Rail Station,368800,134800,51.11163893,-2.447073471
Bruxelles Midi Rail Station,637850,136000,51.07400655,1.393988622
Berwick-upon-Tweed Rail Station,399410,653445,55.77433725,-2.010973328
Brockley Whins Rail Station,434590,562900,54.95954406,-1.46135325
Bryn Rail Station,357165,400547,53.49986653,-2.6472136
Braystones Rail Station,300100,505978,54.43936,-3.541825755
Bishop Auckland Rail Station,420890,529170,54.65719527,-1.67771491
Bishop Auckland West Station,420617,529160,54.65711658,-1.681947142
Bescot Stadium Rail Station,400700,296140,52.56309314,-1.991105477
Bearsden Rail Station,254355,671795,55.91712933,-4.332020128
Bishopbriggs Rail Station,261000,670100,55.90387809,-4.224914749
Bishops Stortford Rail Station,549155,220894,51.86669138,0.164894196
Basingstoke Rail Station,463774,152529,51.26835691,-1.087263719
Bishop's Lydeard Rail Station,316388,129039,51.05458642,-3.194329759
Bishopstone Rail Station,546930,99908,50.78014353,0.082757009
Bearsted Rail Station,579882,156119,51.27582146,0.577580482
Bury St Edmunds Rail Station,585300,265200,52.25376334,0.713306801
Betchworth Rail Station,521052,151317,51.24818921,-0.266972937
Bathgate Rail Station,297790,668324,55.8971522,-3.636096071
Bethnal Green Rail Station,534715,182340,51.52391727,-0.059567964
Butlers Lane Rail Station,411070,299420,52.59246962,-1.838020105
Battlesbridge Rail Station,577665,194895,51.6248254,0.565285635
Bentley (S Yorks) Rail Station,456360,405590,53.5439364,-1.150948476
Battersby Rail Station,458900,507300,54.45768,-1.092971749
Buckenham Rail Station,635120,305650,52.59773841,1.470325507
Bugle Rail Station,201670,59335,50.4003487,-4.7921002
Builth Road Rail Station,302500,253300,52.16932219,-3.427032587
Bulwell Rail Station,454040,345010,52.99969549,-1.19623044
Bures Rail Station,590310,233920,51.97116199,0.769143932
Burgess Hill Rail Station,531625,118805,50.95365612,-0.127412773
Burley-in-Wharfedale Rail Station,416300,445805,53.90815049,-1.753371916
Burnley Barracks Rail Station,383095,432760,53.79087809,-2.25808571
Burnley Central Rail Station,383960,433050,53.79351214,-2.244971019
Burnley Manchester Road Rail Station,383700,432100,53.78496552,-2.24886723
Bursledon Rail Station,448985,109585,50.88368819,-1.305032226
Burton-on-Trent Rail Station,424200,323200,52.8058155,-1.642459791
Busby Rail Station,258220,656430,55.78033939,-4.262200748
Bushey Rail Station,511858,195322,51.64558158,-0.384749078
Bushey Rail Station,511818,195340,51.6457513,-0.385321191
Buxton Rail Station,405910,373750,53.26072125,-1.912863363
Bexleyheath Rail Station,548320,175995,51.46350015,0.133734962
Buxted Rail Station,549688,123341,50.99001278,0.131439012
Byfleet & New Haw Rail Station,505854,162285,51.34979665,-0.481389688
Bynea Rail Station,254960,199115,51.6720317,-4.098880735
Cadoxton Rail Station,313240,168880,51.41227956,-3.248895364
Caergwrle Rail Station,330950,357240,53.10786315,-3.032912766
Calstock Rail Station,243428,68775,50.49779719,-4.208987537
Cambridge Rail Station,546195,257245,52.19406727,0.137456553
Cambridge North Rail Station,547531,260670,52.22448193,0.158478814
Camelon Rail Station,286760,680730,56.00609157,-3.817605164
Cambridge Heath (London) Rail Station,534850,183240,51.5319727,-0.057278984
Canley Rail Station,430880,278010,52.39924091,-1.547574705
London Cannon Street Rail Station,532620,180890,51.51138232,-0.090292899
Carbis Bay Rail Station,152930,38745,50.19704956,-5.463263052
Cardiff Bay Rail Station,319074,174883,51.46710856,-3.166402893
Cardiff Queen Street Rail Station,318838,176539,51.48196153,-3.170180554
Carfin Rail Station,277490,658850,55.80733907,-3.956253673
Cark Rail Station,336520,476235,54.17795478,-2.97406361
Carlisle Rail Station,340240,555500,54.89065184,-2.933191633
Carmyle Rail Station,264930,662230,55.83433678,-4.158180193
Carrbridge Rail Station,289878,822465,57.27950133,-3.828202814
Caersws Rail Station,302890,291880,52.51612401,-3.432498148
Castleford Rail Station,442680,425490,53.72407722,-1.354652595
Caterham Rail Station,534120,155420,51.28214149,-0.078307041
Kings Cross Underground Station,530230,182930,51.53027041,-0.123960344
Catford Bridge Rail Station,537365,173600,51.44474074,-0.024791093
Catford Rail Station,537260,173560,51.44440672,-0.026316515
Cathays Rail Station,318260,177320,51.48889904,-3.178683327
Cattal Rail Station,444640,455925,53.99744005,-1.320534998
Wirksworth Rail Station,428990,354022,53.08263918,-1.568662033
Idridgehay Rail Station,428977,348832,53.03598791,-1.569321304
Causeland Rail Station,224830,59110,50.40569032,-4.466447844
Castle Bar Park Rail Station,515850,181765,51.5229305,-0.331548862
Colwyn Bay Rail Station,285100,379100,53.29635884,-3.725416573
Crowborough Rail Station,553472,129725,51.04638156,0.188012504
Cobham & Stoke d'Abernon Rail Station,512341,158897,51.31810074,-0.389346295
Camborne Rail Station,164830,39696,50.21043625,-5.297410798
Cranbrook Rail Station,299891,95461,50.75009135,-3.420415351
Castle Cary Rail Station,363490,133520,51.09981479,-2.522794334
Cathcart Rail Station,258460,660580,55.81766834,-4.260536069
Caldicot Rail Station,347400,187600,51.58479025,-2.760573479
Cardenden Rail Station,321700,695000,56.14125542,-3.261641876
Cardonald Rail Station,253570,664630,55.8525684,-4.34069246
Cardross Rail Station,234480,677330,55.96037865,-4.653073203
Cefn-y-Bedd Rail Station,331060,356230,53.09879998,-3.031052729
Croftfoot Rail Station,260480,660580,55.81825641,-4.228324643
Crossflatts Rail Station,410300,440260,53.85846582,-1.844885978
Crofton Park Rail Station,536520,174740,51.4551892,-0.036502962
Chafford Hundred Rail Station,558920,178770,51.48555724,0.287447021
Chapelton (Devon) Rail Station,258075,126080,51.01653522,-4.024721883
Chartham Rail Station,610683,155227,51.25726587,1.018039401
Chassen Road Rail Station,375640,394440,53.4461593,-2.368232872
Chatham Rail Station,575547,167608,51.38037859,0.521150827
Charlbury Rail Station,435230,219440,51.87242754,-1.489693772
Chichester Rail Station,485890,104320,50.83205343,-0.781748862
Cheadle Hulme Rail Station,387570,386580,53.37592874,-2.1883027
Cheddington Rail Station,492232,218549,51.85791824,-0.662151787
Chadwell Heath Rail Station,547650,187610,51.56803876,0.128958453
Cheam Rail Station,524447,163336,51.35547892,-0.214167444
Chapel-en-le-Frith Rail Station,405510,379480,53.31223083,-1.91876238
Chelford Rail Station,381385,374850,53.27030984,-2.280577006
Chepstow Rail Station,353600,193700,51.64017923,-2.671905208
Cheshunt Rail Station,536647,202307,51.70287619,-0.023959641
Chetnole Rail Station,359778,107585,50.86636303,-2.572925576
Chesterfield Rail Station,438800,371400,53.23822014,-1.420115822
Church Fenton Rail Station,450940,436980,53.82660064,-1.227588772
Chathill Rail Station,418630,627040,55.53673284,-1.706375132
Chingford Rail Station,539200,194610,51.63308667,0.009897125
Chippenham Rail Station,392080,173730,51.46248796,-2.115393887
Chirk Rail Station,328470,337830,52.93308718,-3.065643107
Chiswick Rail Station,520380,177220,51.48113662,-0.267835128
Chalfont & Latimer Rail Station,499647,197573,51.66810844,-0.560526316
Chalkwell Rail Station,585303,185582,51.53871912,0.670592695
Chelmsford Rail Station,570552,207068,51.73637265,0.468572197
Chelsfield Rail Station,546950,164020,51.35625594,0.109069904
Cheltenham Spa Rail Station,393242,222099,51.89739729,-2.099619955
Chilworth Rail Station,503130,147257,51.21521317,-0.524824057
Chinley Rail Station,403830,382600,53.34028991,-1.943940718
Cholsey Rail Station,458452,186039,51.57020232,-1.158022886
Buckshaw Parkway Rail Station,356441,419855,53.673341,-2.660829872
Chorley Rail Station,358666,417520,53.65253607,-2.626840647
Church & Oswaldtwistle Rail Station,374300,428310,53.75052055,-2.39121186
Chapeltown Rail Station,435533,396309,53.46233625,-1.466275229
Chappel & Wakes Colne Rail Station,589770,228860,51.92590597,0.758501286
Christchurch Rail Station,415300,93200,50.73821416,-1.784545943
Charing Cross (Glasgow) Rail Station,258050,665830,55.86468173,-4.269819954
Christs Hospital Rail Station,514800,129200,51.05068601,-0.363556262
Chorleywood Rail Station,502597,196090,51.65424862,-0.518319982
London Charing Cross Rail Station,530235,180455,51.50802739,-0.124802109
Chipstead Rail Station,527685,158275,51.30927731,-0.169503146
Chislehurst Rail Station,543200,169400,51.40555654,0.057418056
Chester Road Rail Station,411460,293100,52.53564615,-1.832479287
Chessington North Rail Station,518400,164145,51.36404106,-0.30069906
Chessington South Rail Station,517900,163300,51.35655031,-0.308157496
Chester Rail Station,341335,366985,53.19669514,-2.879593538
Chestfield & Swalecliffe Rail Station,613615,166817,51.36024124,1.066930718
Chatelherault Rail Station,274320,654250,55.76521874,-4.004674378
Cherry Tree Rail Station,365900,426400,53.73287041,-2.518378829
Chertsey Rail Station,503825,166390,51.38706886,-0.509316546
Cilmeri Rail Station,300440,251250,52.15052954,-3.456541058
Corkerhill Rail Station,253914,662940,55.83750089,-4.334292501
Clacton-on-Sea Rail Station,617600,215300,51.79400281,1.154091821
Clandon Rail Station,504560,152714,51.26400526,-0.502766029
Clapton Rail Station,534780,186540,51.56164393,-0.057024575
Clarbeston Road Rail Station,201500,220940,51.85166518,-4.883547734
Claverdon Rail Station,420800,264370,52.27709043,-1.696559824
Hythe (Essex) Rail Station,601570,224837,51.88563953,0.927527691
Colchester Town Rail Station,600000,224865,51.8864559,0.904762636
Colchester Rail Station,599100,226417,51.90071379,0.892598227
Caledonian Road & Barnsbury Rail Station,530695,184363,51.5430408,-0.116729169
Caldercruix Rail Station,282030,667700,55.88794298,-3.887711087
Cleland Rail Station,280365,658470,55.80464763,-3.910243996
Clifton Down Rail Station,357600,174130,51.46454458,-2.611740839
Collingham Rail Station,483680,361500,53.14408618,-0.750393845
Clitheroe Rail Station,374170,441990,53.87346611,-2.394336315
Chilham Rail Station,607800,153700,51.24461105,0.97589572
Clock House Rail Station,536370,169550,51.40858641,-0.040656982
Clapham High Street Rail Station,529820,175710,51.46548091,-0.132521606
Clapham Junction Rail Station,527205,175500,51.4641869,-0.170221399
Clapham Junction Rail Station,527200,175500,51.46418802,-0.170293337
Clapham Junction Rail Station,527201,175500,51.4641878,-0.170278949
Clapham Junction Rail Station,527202,175500,51.46418757,-0.170264562
Clapham Junction Rail Station,527203,175500,51.46418735,-0.170250174
Clapham (N Yorks) Rail Station,373265,467800,54.10538581,-2.410375939
Clarkston Rail Station,257410,657460,55.78934838,-4.275643764
Chester-le-Street Rail Station,427190,551170,54.85459441,-1.57801525
Cleethorpes Rail Station,530630,409060,53.56190613,-0.029220845
Clifton (Manchester) Rail Station,379230,402915,53.52248956,-2.314746335
Colwall Rail Station,375635,242450,52.0798684,-2.356950054
Clydebank Rail Station,249768,670121,55.90069113,-4.404413872
Claygate Rail Station,515097,163755,51.36121401,-0.348247717
Clunderwen Rail Station,211900,219300,51.8405398,-4.731841806
Cwmbach Rail Station,302400,201300,51.70192728,-3.413723082
Camberley Rail Station,487573,160441,51.33632762,-0.744271631
Cumbernauld Rail Station,276410,673880,55.94202584,-3.980334332
Cambuslang Rail Station,263950,660620,55.81960607,-4.173008417
Camden Road Rail Station,529175,184185,51.54179079,-0.138700821
Cromer Rail Station,621410,342040,52.93008448,1.292824545
Carmarthen Rail Station,241280,219710,51.85335257,-4.305960897
Cannock Rail Station,398600,309830,52.68616082,-2.022147252
Canada Water Rail Station,535475,179475,51.49799009,-0.049719754
Canonbury Rail Station,532380,185040,51.54873225,-0.092190848
Carnoustie Rail Station,356600,734500,56.50056337,-2.706600366
Canterbury East Rail Station,614645,157285,51.27426782,1.075968566
Canterbury West Rail Station,614552,158395,51.28426934,1.075303268
Cantley Rail Station,638140,303680,52.57874812,1.513412326
Canning Town Rail Station,539300,181600,51.51615644,0.006186566
Carntyne Rail Station,263725,664555,55.85487268,-4.178572201
Coatbridge Central Rail Station,272930,665125,55.86250551,-4.031896767
Coatbridge Sunnyside Rail Station,273170,665600,55.86683388,-4.0282871
Coatdyke Rail Station,274620,665280,55.86434002,-4.004984381
Cooden Beach Rail Station,570992,106566,50.83337248,0.426858849
Codsall Rail Station,386440,303300,52.62728804,-2.201762815
Cogan Rail Station,317460,172560,51.4459923,-3.18908983
Cooksbridge Rail Station,540077,113474,50.90375649,-0.009202668
Coleshill Parkway Rail Station,419900,291000,52.51652643,-1.708177216
Colne Rail Station,388135,439850,53.85474251,-2.18185906
Coulsdon South Rail Station,529870,159060,51.31583815,-0.137887214
Coulsdon Town Rail Station,530091,159756,51.32204264,-0.134464151
Combe (Oxon) Rail Station,441850,215060,51.83259345,-1.39407319
Commondale Rail Station,466500,510030,54.4812741,-0.975147915
Conisbrough Rail Station,450900,399450,53.48930904,-1.23433138
Congleton Rail Station,387220,362320,53.15785428,-2.192579987
Connel Ferry Rail Station,191470,734050,56.45235269,-5.385440917
Conon Bridge Rail Station,254105,855032,57.56175145,-4.440405317
Cononley Rail Station,399305,446825,53.91757012,-2.012067646
Conwy Rail Station,278049,377466,53.28010171,-3.830524202
Cookham Rail Station,488690,185060,51.55746272,-0.722078985
Coombe Junction Halt (Rail Station),223885,63619,50.44591967,-4.481851232
Copplestone Rail Station,276700,103120,50.81446654,-3.751571707
Corby Rail Station,489160,288690,52.48885139,-0.688335317
Corpach Rail Station,209680,776720,56.8428269,-5.121956493
Corrour Rail Station,235620,766410,56.7602136,-4.690600195
Coryton Rail Station,314630,180888,51.52043602,-3.231817882
Coseley Rail Station,394280,294140,52.5450825,-2.085777483
Cosford Rail Station,379780,305275,52.64483387,-2.300274668
Cosham Rail Station,465765,105125,50.84192412,-1.067328684
Cottingley Rail Station,427274,430242,53.76781663,-1.587708042
Coventry Arena Rail Station,434479,283428,52.44773295,-1.494124546
Coventry Rail Station,433200,278200,52.40081364,-1.513459614
Cowden Rail Station,547658,141714,51.15563724,0.110032812
Capenhurst Rail Station,337240,374100,53.26017358,-2.942284782
Cradley Heath Rail Station,393950,285750,52.46965356,-2.090488133
Craven Arms Rail Station,343175,283060,52.44253876,-2.837421871
Crawley Rail Station,527029,136332,51.1122138,-0.186672856
Corbridge Rail Station,398920,563515,54.96626087,-2.018400074
Corkickle Rail Station,297740,517420,54.54167933,-3.582164049
Cardiff Central Rail Station,318194,175889,51.47602539,-3.17930174
Crediton Rail Station,284005,99485,50.78330269,-3.646777569
Cressing Rail Station,577648,220224,51.85233671,0.577961168
Crewe Rail Station,371100,354800,53.08962487,-2.432968833
Crayford Rail Station,551510,174395,51.44827991,0.178936169
Craigendoran Rail Station,231000,681300,55.99479604,-4.711243726
Crews Hill Rail Station,530970,200110,51.68448582,-0.106887015
Criccieth Rail Station,249660,338010,52.91841049,-4.237511921
Cricklewood Rail Station,524000,185910,51.55845296,-0.212676556
Crewkerne Rail Station,345320,108515,50.87353559,-2.778496015
Carluke Rail Station,283990,650200,55.73126489,-3.84892484
Charlton Rail Station,541130,178385,51.48681329,0.031257577
Cramlington Rail Station,425720,577110,55.08776801,-1.598594945
Carnforth Rail Station,349700,470700,54.12967796,-2.771232404
Charing (Kent) Rail Station,595005,149132,51.20809931,0.790331278
Crianlarich Rail Station,238460,725100,56.39047613,-4.618433531
Crookston Rail Station,252030,663540,55.84231302,-4.364674969
Cromford Rail Station,430275,357400,53.11293211,-1.549161847
Crosshill Rail Station,258750,662310,55.83328516,-4.256811281
Croston Rail Station,348710,419290,53.66756008,-2.777749706
Crouch Hill Rail Station,530585,187505,51.57130188,-0.117148739
Crowle Rail Station,478380,411000,53.58973314,-0.817358558
Croy Rail Station,272980,675500,55.95567733,-4.035975959
Caerphilly Rail Station,315650,186560,51.57157711,-3.218481989
Carpenders Park Rail Station,511818,193404,51.62835115,-0.385939032
Carshalton Beeches Rail Station,527531,163627,51.35741096,-0.169796965
Carshalton Rail Station,527739,164861,51.36845431,-0.166368456
Crosskeys Rail Station,322132,191943,51.62090186,-3.126169923
Crossmyloof Rail Station,257030,662440,55.83394562,-4.284317395
Cressington Rail Station,339400,385040,53.35874899,-2.912002865
Carstairs Rail Station,295213,645437,55.69104634,-3.668473251
Carlton Rail Station,461980,341255,52.96508726,-1.078654915
Cartsdyke Rail Station,229500,675500,55.94221313,-4.731590716
Crowhurst Rail Station,576028,112879,50.88857935,0.501336628
Creswell (Derbys) Rail Station,452365,374410,53.26411245,-1.216394739
Crowthorne Rail Station,482294,163735,51.36672753,-0.819273319
Crystal Palace Rail Station,534120,170550,51.41810903,-0.072609797
Imperial Wharf Rail Station,526300,176675,51.4749491,-0.182822677
Chandlers Ford Rail Station,443255,120655,50.98368396,-1.385170246
Cross Gates Rail Station,436215,434430,53.80491367,-1.451580332
Castleton (Manchester) Rail Station,388300,410600,53.5918466,-2.178233914
Church Stretton Rail Station,345585,293588,52.53742135,-2.803694332
City Thameslink Rail Station,531690,181150,51.51393614,-0.103589563
Collington Rail Station,573153,107296,50.83928903,0.457861502
Castleton Moor Rail Station,468370,508485,54.46714359,-0.9466483
Cottingham Rail Station,505100,432880,53.78164892,-0.406433903
Cuddington Rail Station,360100,371600,53.23991927,-2.599306243
Cuffley Rail Station,530700,202800,51.70872172,-0.109783332
Culham Rail Station,452915,195276,51.65379323,-1.236513707
Culrain Rail Station,257680,894770,57.91951303,-4.404270624
Cupar Rail Station,337700,714300,56.31698721,-3.008756166
Curriehill Rail Station,317640,668280,55.90056537,-3.318751366
Custom House Rail Station,540760,180950,51.5099541,0.026954565
Cowdenbeath Rail Station,316570,691850,56.11209161,-3.343185739
Cwmbran Rail Station,329800,195800,51.65658593,-3.016203336
Cuxton Rail Station,571435,166750,51.3739266,0.461708697
Cynghordy Rail Station,280220,240677,52.05149782,-3.748210563
Daisy Hill Rail Station,365910,404880,53.53945292,-2.515861022
Dalgety Bay Rail Station,314890,684090,56.04209459,-3.367720584
Dalmuir Rail Station,248420,671420,55.91192926,-4.426680893
Dalry Rail Station,229752,649195,55.70622013,-4.711079627
Dalston Junction Rail Station,533570,184780,51.54611563,-0.07513749
Dalston Kingsland Rail Station,533525,185005,51.54814819,-0.075700745
Dalston (Cumbria) Rail Station,336600,550600,54.84617612,-2.988851938
Dalton Rail Station,323100,473800,54.15423676,-3.179002774
Dalwhinnie Rail Station,263420,784900,56.93516968,-4.246198434
Danby Rail Station,470685,508410,54.46615325,-0.910955749
Danescourt Rail Station,314447,178674,51.50050585,-3.233916819
Danzey Rail Station,412305,269650,52.32481263,-1.82087715
Darnall Rail Station,439170,387687,53.3845842,-1.412567068
Darsham Rail Station,640480,269720,52.27299917,1.523470117
Dartford Rail Station,554314,174378,51.44737068,0.219247891
Darwen Rail Station,369400,422500,53.69803591,-2.46493967
Datchet Rail Station,498740,176970,51.48307687,-0.579421828
Davenport Rail Station,389925,388240,53.3909004,-2.152957753
Dawlish Rail Station,296400,76700,50.58082043,-3.46462521
Dawlish Warren Rail Station,297930,78660,50.59871059,-3.443561482
Kelvindale Rail Station,255670,669125,55.89355582,-4.309572579
Deal Rail Station,637424,152584,51.22304453,1.398847015
Dean Rail Station,425695,127075,51.04246093,-1.634867029
Deganwy Rail Station,277900,379100,53.29474745,-3.833386304
Deighton Rail Station,416490,419140,53.66848258,-1.751896394
Delamere Rail Station,355600,370400,53.22877526,-2.666560307
Denham Rail Station,504214,187733,51.57883725,-0.497436774
Denham Golf Club Rail Station,502800,187900,51.58059767,-0.517786602
Denmark Hill Rail Station,532810,176090,51.46820267,-0.089360803
Dent Rail Station,376425,487480,54.28240866,-2.36359857
Dorking Deepdene Rail Station,517051,150180,51.23880419,-0.324643107
Deptford Rail Station,537160,177390,51.47884803,-0.026270131
Derby Road (Ipswich) Rail Station,618320,243910,52.05055483,1.182643483
Derker Rail Station (closed),393360,405950,53.5501407,-2.101688076
Devonport Rail Station,245755,55435,50.37853338,-4.170709864
Dingle Road Rail Station,318040,171890,51.4400536,-3.180590536
Dagenham Dock Rail Station,548975,182980,51.52608967,0.146102979
Didcot Parkway Rail Station,452523,190507,51.61095435,-1.242893433
Digby & Sowton Rail Station,296062,91520,50.71398935,-3.473560437
Dilton Marsh Rail Station,385585,150000,51.24898718,-2.207915291
Dinas Powys Rail Station,315400,171000,51.43166424,-3.218351551
Dinas (Rhondda) Rail Station,300570,191980,51.61783397,-3.437541092
Dingwall Rail Station,255323,858608,57.59423535,-4.422198806
Dinsdale Rail Station,434600,513400,54.51472882,-1.46706498
Disley Rail Station,397270,384590,53.35818268,-2.042481519
Diss Rail Station,612730,279660,52.37365791,1.123697554
Dalmally Rail Station,215980,727210,56.4011892,-4.98355207
Dalmarnock Rail Station,261230,663210,55.84208526,-4.217708597
Dalmeny Rail Station,313900,677900,55.98631863,-3.381619605
Dalreoch Rail Station,239120,675710,55.94741499,-4.577862941
Darlington Rail Station,429400,514000,54.52044787,-1.547323824
Dolwyddelan Rail Station,273740,352190,53.05201237,-3.885132166
Dumbarton Central Rail Station,239800,675600,55.94665488,-4.566920572
Dumbarton East Rail Station,240580,675080,55.94224689,-4.554136699
Denby Dale Rail Station,422400,408500,53.57263103,-1.663210341
Dunfermline Town Rail Station,309668,687102,56.06819,-3.452528666
Dunfermline Queen Margaret Rail Station,311630,688440,56.08057444,-3.421467769
Dunlop Rail Station,241000,649400,55.71187989,-4.532388801
Dunrobin Castle Rail Station,284860,901250,57.98553352,-3.948920859
Dunston Rail Station,423025,561770,54.95005526,-1.642044407
Dinting Rail Station,402070,394730,53.44933061,-1.970298548
Denton Rail Station,391355,395576,53.45686566,-2.131659519
Dockyard (Plymouth) Rail Station,245398,55850,50.38216908,-4.175897709
Dodworth Rail Station,431130,405400,53.54432473,-1.531690716
Dolau Rail Station,313920,267110,52.29535037,-3.263620331
Doleham Rail Station,583550,116480,50.91858822,0.609974861
Dolgarrog Rail Station,278309,367024,53.18634799,-3.822636123
Doncaster Rail Station,457125,403175,53.52214948,-1.139845207
Dore & Totley Rail Station,432380,381300,53.32763431,-1.515297594
Dorridge Rail Station,416920,274920,52.37206842,-1.75290025
Dorking Rail Station,517073,150417,51.24092984,-0.324250704
Dormans Rail Station,539662,141508,51.1557918,-0.004308182
Dover Priory Rail Station,631380,141464,51.12570052,1.305293712
Dovercourt Rail Station,625597,231777,51.9387384,1.280611131
Dovey Junction Rail Station,269690,298020,52.56435885,-3.923902138
Downham Market Rail Station,560300,303330,52.60410884,0.365681165
Drayton Green Rail Station,515960,181065,51.51661662,-0.330194174
Derby Rail Station,436182,335593,52.91654786,-1.463354625
Dorchester South Rail Station,369223,90053,50.7092919,-2.437242681
Dorchester West Rail Station,368850,90240,50.71095354,-2.44254096
Drem Rail Station,351080,679410,56.00512261,-2.786047825
Durham Rail Station,427000,542800,54.77939027,-1.581751929
Driffield Rail Station,502700,457300,54.00152815,-0.43466493
Drigg Rail Station,306340,498900,54.37695942,-3.443412975
Dorking West Rail Station,515987,149869,51.23622597,-0.339978482
Drumchapel Rail Station,252380,670490,55.90481201,-4.36287883
Drumfrochar Rail Station,226800,675500,55.94124767,-4.774766038
Drumgelloch Rail Station,278140,665515,55.8673534,-3.948882099
Durrington-on-Sea Rail Station,512000,103200,50.81752786,-0.411468629
Dronfield Rail Station,435500,378400,53.30136887,-1.468778526
Darton Rail Station,431100,410300,53.58836772,-1.53165741
Droitwich Spa Rail Station,389290,263350,52.26820297,-2.15836314
Drumry Rail Station,250967,670514,55.9045919,-4.385472247
Drayton Park Rail Station,531445,185465,51.55276987,-0.105508928
Dunton Green Rail Station,551454,157500,51.29649026,0.170937209
Duddeston Rail Station,408830,287835,52.48836283,-1.871390459
Dudley Port Rail Station,396740,291865,52.52465135,-2.04947955
Duffield Rail Station,434604,343575,52.98840068,-1.485971711
Duirinish Rail Station,177845,831521,57.31997616,-5.69131608
Duke Street Rail Station,261580,665020,55.85843637,-4.213047594
Dullingham Rail Station,561832,258575,52.20165085,0.366663929
Dumbreck Rail Station,256010,663666,55.84464889,-4.301239034
Dumfries Rail Station,297660,576520,55.07255614,-3.604303273
Dumpton Park Rail Station,638670,166307,51.3456997,1.425818777
Dunblane Rail Station,278110,700990,56.18588968,-3.965485989
Dunbar Rail Station,368080,678490,55.99829367,-2.51334614
Duncraig Rail Station,181207,833239,57.33700174,-5.637130629
Dundee Rail Station,340242,729793,56.45648593,-2.971204548
Dunkeld & Birnam Rail Station,303080,741680,56.5570565,-3.578398928
Cam & Dursley Rail Station,375290,202160,51.71761891,-2.359082665
Dove Holes Rail Station,407445,378125,53.30002792,-1.889751538
Dewsbury Rail Station,424325,421805,53.69213135,-1.633106376
Dyce Rail Station,388480,812780,57.20564973,-2.192322305
Dyffryn Ardudwy Rail Station,258170,323330,52.78885141,-4.104643642
Ealing Broadway Rail Station,517938,180913,51.51484145,-0.30175169
Earlswood (Surrey) Rail Station,527820,149160,51.22732846,-0.170822989
Eastbrook Rail Station,316260,171650,51.43763539,-3.206137427
East Boldon Rail Station,437230,561460,54.94641506,-1.420313892
Eastbourne Rail Station,560959,99124,50.769378,0.281247025
Ebbsfleet International Rail Station,561394,174108,51.4429732,0.320920935
Ebbsfleet International Rail Station,561394,174109,51.44298219,0.320921391
Ebbw Vale Parkway Rail Station,317539,207172,51.75714349,-3.196102711
Ebbw Vale Town Centre,316840,209710,51.77985421,-3.206835929
Ebbw Vale Town Rail Station,317128,209353,51.7766879,-3.202576921
Eccles Rail Station,377900,398790,53.48535852,-2.33451428
Eccles Road Rail Station,601820,290030,52.47088403,0.969917342
Eccleston Park Rail Station,348270,392950,53.4307861,-2.780041514
East Croydon Rail Station,532841,165770,51.3754538,-0.09277962
Edale Rail Station,412300,385360,53.36497112,-1.816626203
Edge Hill Rail Station,337170,389950,53.40261615,-2.94648296
East Didsbury Rail Station,385340,390300,53.40930831,-2.221996313
Edinburgh Rail Station,325900,673900,55.95239282,-3.188227684
Edinburgh Gateway Rail Station,317632,672775,55.94093992,-3.320251394
Edinburgh Park Rail Station,318390,671270,55.92755079,-3.307664146
Edmonton Green Rail Station,534310,193570,51.62492876,-0.061112413
Edenbridge Rail Station,544040,147487,51.20843562,0.060646348
Edenbridge Town Rail Station,544522,146571,51.20008273,0.067173103
Eden Park Rail Station,537420,167520,51.39009103,-0.026355077
East Dulwich Rail Station,533440,175360,51.46149448,-0.080571619
East Farleigh Rail Station,573484,153607,51.25523768,0.484729048
Effingham Junction Rail Station,510271,155892,51.29149534,-0.41996534
Eggesford Rail Station,268230,111480,50.88773671,-3.874745114
Egham Rail Station,501143,171073,51.42964677,-0.546512152
Eaglescliffe Rail Station,442200,515100,54.52943151,-1.349437013
East Garforth Rail Station,441565,433035,53.79197747,-1.370536818
East Grinstead Rail Station,538800,138200,51.12627358,-0.017900012
Egton Rail Station,480430,505380,54.43748142,-0.761464876
East Kilbride Rail Station,263310,654670,55.7660034,-4.18022701
Eastleigh Rail Station,445732,119071,50.96925017,-1.350084453
Elgin Rail Station,321823,862199,57.64290938,-3.311245905
Elmers End Rail Station,535780,168411,51.39849235,-0.049570266
Elmswell Rail Station,598970,263980,52.23804027,0.912589575
Elmstead Woods Rail Station,542250,170660,51.4171176,0.044274145
Elephant & Castle Rail Station,532085,178945,51.49402878,-0.098725495
Elsecar Rail Station,438080,400370,53.49865905,-1.427423764
Elsenham Rail Station,553321,227014,51.92054552,0.228070367
Ellesmere Port Rail Station,340330,376510,53.28219096,-2.896422573
Eltham Rail Station,542700,174960,51.45564352,0.052472418
Elton & Orston Rail Station,476990,340030,52.95213626,-0.855512342
Elstree & Borehamwood Rail Station,519080,196320,51.65306936,-0.280081462
Earlswood (West Midlands) Rail Station,409550,274290,52.36658115,-1.861169483
Ely Rail Station,554350,279440,52.39122981,0.266827683
East Malling Rail Station,570200,156900,51.28580982,0.43928038
East Midlands Parkway Rail Station,449700,329700,52.86250055,-1.263231854
Emerson Park Rail Station,553965,187865,51.56864243,0.220113325
Emsworth Rail Station,474825,106325,50.85161432,-0.938429664
Enfield Chase Rail Station,532180,196666,51.65325408,-0.09069629
Oakwood Station,529326,195977,51.64772561,-0.132182375
Enfield Lock Rail Station,536427,198745,51.67092209,-0.028532382
Enfield Town Rail Station,532970,196550,51.65202556,-0.079327561
Entwistle Rail Station,372700,417800,53.65597643,-2.41454472
Epsom Downs Rail Station,522806,159759,51.3236875,-0.238954771
Epsom Rail Station,520700,160900,51.33439273,-0.268777602
Erdington Rail Station,410985,292280,52.52828416,-1.839508876
Energlyn & Churchill Park Rail Station,314957,187866,51.58321286,-3.228795493
Eridge Rail Station,554271,134488,51.08896564,0.201431807
Erith Rail Station,551130,178100,51.48167093,0.175054542
Earlsfield Rail Station,526050,173040,51.44233697,-0.187714856
Earlestown Rail Station,357750,395120,53.45113672,-2.637663257
Earley Rail Station,475300,171900,51.44109996,-0.917988144
Esher Rail Station,514696,165824,51.3798911,-0.35333776
Easterhouse Rail Station,268210,664960,55.85975624,-4.107176378
Eskbank Rail Station,332343,665936,55.88180242,-3.083073013
Essex Road Rail Station,532120,184140,51.54070534,-0.096275978
Mitcham Eastfields Rail Station,528445,169250,51.40773905,-0.154645956
Eastham Rake Rail Station,334721,379404,53.30753837,-2.981132428
Eastrington Rail Station,480034,429437,53.75516109,-0.787630319
Etchingham Rail Station,571431,126301,51.01054617,0.442356379
East Tilbury Rail Station,567634,178969,51.48483136,0.412927892
Etruria Rail Station,386554,346967,53.01983004,-2.201892216
London Euston Rail Station,529545,182675,51.52813624,-0.133923556
Euxton Balshaw Lane Rail Station,355688,418431,53.66047929,-2.672023457
Evesham Rail Station,403706,244452,52.09839706,-1.947313473
Ewell East Rail Station,522569,162158,51.34529955,-0.24152956
Ewell West Rail Station,521480,162660,51.35004486,-0.256986541
East Worthing Rail Station,515975,103745,50.82164518,-0.354893674
Exeter Central Rail Station,291875,92995,50.72648417,-3.533276408
Exeter St Davids Rail Station,291175,93320,50.72927488,-3.543286177
Exeter St Thomas Rail Station,291461,91965,50.71714779,-3.538836298
Exhibition Centre (Glasgow) Rail Station,257177,665510,55.8615509,-4.283588736
Exmouth Rail Station,300002,81170,50.62163484,-3.414971636
Exton Rail Station,298043,86399,50.66830358,-3.4440962
Eynsford Rail Station,553565,164934,51.36272035,0.204393216
Fairlie Rail Station,221030,654640,55.75194239,-4.853267413
Falconwood Rail Station,544553,175403,51.45915447,0.079304565
Falkirk Grahamston Rail Station,288780,680290,56.00261332,-3.785046106
Falkirk High Rail Station,288300,679100,55.99181516,-3.79224411
Falmouth Docks Rail Station,181777,32322,50.15070775,-5.056028096
Falmouth Town Rail Station,181130,32085,50.1483408,-5.064934897
Failsworth Rail Station (closed),389267,401535,53.51038864,-2.163310245
North Fambridge Rail Station,585622,197826,51.64858374,0.681658911
Falmer Rail Station,534700,108700,50.86212906,-0.087385426
Fareham Rail Station,456971,106257,50.8530336,-1.192037119
Farnham Rail Station,484446,146548,51.21190464,-0.792427105
Fauldhouse Rail Station,292380,660140,55.82247342,-3.719318612
Faversham Rail Station,601585,160924,51.31171374,0.891045016
Faygate Rail Station,521728,134388,51.09589064,-0.263018592
Fazakerley Rail Station,337916,397336,53.46908478,-2.936723222
Fearn Rail Station,281518,878244,57.77814234,-3.993935682
Feltham Rail Station,510600,173300,51.44789838,-0.409838162
London Fenchurch Street Rail Station,533410,180940,51.51164583,-0.078896687
Feniton Rail Station,309485,99355,50.78667691,-3.285417704
Fernhill Rail Station,303600,199560,51.68649496,-3.39588265
Ferriby Rail Station,498570,425560,53.71715458,-0.507830392
Ffairfach Rail Station,262900,221200,51.87247446,-3.992859409
Fishguard Harbour Rail Station,195200,239000,52.01154268,-4.98564202
Fishguard & Goodwick Rail Station,194535,238200,52.00411412,-4.994837767
Filey Rail Station,511370,480690,54.20985832,-0.293849318
Filton Abbey Wood Rail Station,361060,178595,51.50493899,-2.562430551
Finstock Rail Station,436647,217265,51.85278215,-1.469342948
Fiskerton Rail Station,473000,352000,53.0602739,-0.912187511
Fitzwilliam Rail Station,441475,415290,53.63250063,-1.374273022
Five Ways Rail Station,406010,285910,52.47109494,-1.912954293
Fleet Rail Station,481626,155260,51.29063481,-0.830805604
Flimby Rail Station,302070,533800,54.68968698,-3.520740028
Flint Rail Station,324500,373100,53.2495241,-3.132993117
Flitwick Rail Station,503390,234980,52.00364206,-0.495257794
Flixton Rail Station,374575,394184,53.44380776,-2.384246431
Folkestone Central Rail Station,622084,136286,51.08288758,1.169482479
Folkestone West Rail Station,620985,136428,51.08458656,1.153903519
Falls of Cruachan Rail Station,207990,726750,56.39388301,-5.112477709
Flowery Field Rail Station,394716,396126,53.46185448,-2.081052914
Felixstowe Rail Station,630250,235146,51.96707239,1.350435245
Finchley Road & Frognal Rail Station,526070,185050,51.55026586,-0.183140521
Finsbury Park Rail Station,531358,186746,51.56430177,-0.106284898
Farringdon (London) Rail Station,531570,181855,51.52029956,-0.105054947
Ford Rail Station,500215,104280,50.82939381,-0.578409948
Forest Hill Rail Station,535410,172940,51.43928011,-0.053157023
Formby Rail Station,329150,406850,53.55347712,-3.070907694
Forres Rail Station,303018,859073,57.61118426,-3.624873423
Forsinard Rail Station,289100,942500,58.35689927,-3.896880259
Four Oaks Rail Station,411750,298010,52.57977994,-1.828031689
Foxfield Rail Station,320880,485460,54.25866793,-3.216061511
Foxton Rail Station,540885,248760,52.1192136,0.056308179
Frant Rail Station,560739,136362,51.10402871,0.294543148
Fratton Rail Station,465360,100050,50.79633887,-1.073982663
Fairbourne Rail Station,261600,312900,52.69604157,-4.049413376
Farnborough (Main) Rail Station,486870,156020,51.2966922,-0.755436425
Farnborough North Rail Station,487725,156630,51.30204494,-0.74302684
Frodsham Rail Station,351870,377895,53.29581503,-2.72356682
Freshford Rail Station,379130,160370,51.34202965,-2.301008422
Fairfield Rail Station,390421,397183,53.47129371,-2.145774925
Frimley Rail Station,487430,157717,51.31186197,-0.746991275
Frinton-on-Sea Rail Station,623525,220426,51.8376825,1.243170772
Farncombe Rail Station,497600,145140,51.19715385,-0.604548796
Farringdon Rail Station,531560,181840,51.52016709,-0.105204589
Farningham Road Rail Station,555595,169330,51.40166558,0.235452153
Farnworth Rail Station,374400,406000,53.55000387,-2.387849644
Frome Rail Station,378450,147610,51.22727051,-2.309996749
Frosterley Rail Station,402390,536890,54.72699474,-1.964411377
Freshfield Rail Station,329110,408250,53.56605314,-3.07182943
Forest Gate Rail Station,540458,185335,51.54943194,0.024352903
Fort Matilda Rail Station,225600,677530,55.95903106,-4.795267467
Fort William Rail Station,210531,774186,56.8204441,-5.106143313
Fairwater Rail Station,314440,177940,51.49390659,-3.233839415
Frizinghall Rail Station,415305,436035,53.82036998,-1.769001056
Fishbourne Rail Station,483530,105060,50.83905138,-0.81508416
Fishersgate Rail Station,525483,105366,50.83423456,-0.21942316
Fenny Stratford Rail Station,488245,234292,52.00006886,-0.715997274
Featherstone Rail Station,442475,420480,53.67906634,-1.358444102
Fulwell Rail Station,514830,171840,51.43393512,-0.349467529
Furness Vale Rail Station,400840,383540,53.34875178,-1.988844583
Furze Platt Rail Station,488294,182334,51.53302027,-0.72847274
Ferryside Rail Station,236600,210400,51.76836712,-4.369458142
Galashiels Rail Station,349337,636329,55.61789919,-2.805954426
Smethwick Galton Bridge Rail Station,401420,289320,52.50178093,-1.980510899
Smethwick Galton Bridge High Level Rail Station,401421,289320,52.50178092,-1.980496167
Garforth Rail Station,440785,433540,53.79657766,-1.382309564
Garrowhill Rail Station,266800,664500,55.8552384,-4.129460473
Garsdale Rail Station,378870,491810,54.32143003,-2.326353523
Garth (Powys) Rail Station,295380,249430,52.13323632,-3.529907103
Garve Rail Station,239500,861300,57.6130409,-4.688395135
Garswood Rail Station,355500,399300,53.48852017,-2.672134563
Gathurst Rail Station,354100,407200,53.55940252,-2.69439319
Gatley Rail Station,384720,388477,53.39290459,-2.231233966
Gainsborough Lea Road Rail Station,482000,388400,53.3860891,-0.768579507
Greenbank Rail Station,364450,372850,53.25146475,-2.534270639
Gainsborough Central Rail Station,481900,389900,53.39958433,-0.769694021
Godalming Rail Station,496622,143946,51.18658662,-0.618862248
Gerrards Cross Rail Station,500184,188785,51.589023,-0.555275341
Greenfield Rail Station,399180,404690,53.53885801,-2.013843453
Greenford Rail Station,514810,183900,51.54233132,-0.345837125
Giggleswick Rail Station,380275,462915,54.06180041,-2.302847708
Guide Bridge Rail Station,392550,397550,53.47462736,-2.113710568
Gidea Park Rail Station,552940,189310,51.581904,0.205964395
Giffnock Rail Station,256375,659125,55.80398988,-4.293014202
Gipsy Hill Rail Station,533321,171235,51.42445312,-0.083835838
Girvan Rail Station,219030,598380,55.24631251,-4.848381312
Glaisdale Rail Station,478330,505555,54.43938124,-0.793787741
Glasshoughton Rail Station,443530,423825,53.70904302,-1.342005063
Glazebrook Rail Station,369555,392495,53.42835953,-2.459657397
Gilberdyke Rail Station,483700,428700,53.74796352,-0.732243359
Goldthorpe Rail Station,445645,404390,53.53418939,-1.312807649
Gilfach Fargoed Rail Station,315300,199100,51.68424924,-3.226568058
Glasgow Central Rail Station,258794,665257,55.85975599,-4.257643289
Glasgow Central Low Level Rail Station,258737,665139,55.85867989,-4.258491699
High Street (Glasgow) Rail Station,259890,665200,55.8595641,-4.24011796
Glengarnock Rail Station,232190,652740,55.73888753,-4.674501672
Glasgow Queen Street Rail Station,259190,665515,55.86218815,-4.251455867
Glasgow Queen Street Low Level Rail Station,259241,665531,55.8623467,-4.250649998
Gillingham (Dorset) Rail Station,380980,126110,51.03403441,-2.272623704
Glan Conwy Rail Station,280200,376000,53.26742147,-3.797727399
Gleneagles Rail Station,292900,710500,56.27484955,-3.731167936
Glenfinnan Rail Station,189870,780970,56.87240232,-5.449619847
Gillingham (Kent) Rail Station,577520,168365,51.38656546,0.5498501
Glenrothes with Thornton Rail Station,329110,697220,56.16235695,-3.143015316
Gloucester Rail Station,383675,218580,51.86555855,-2.238487611
Glossop Rail Station,403480,394190,53.44446971,-1.949073719
Glynde Rail Station,545790,108670,50.85917206,0.070077375
Greenhithe for Bluewater Rail Station,558545,174842,51.45037175,0.280290219
Green Lane Rail Station,332490,387860,53.38325424,-3.016414758
Gunnersbury Rail Station,519835,178380,51.49167762,-0.275286357
Grangetown (Cardiff) Rail Station,317455,174965,51.46761153,-3.189723868
Greenwich Rail Station,538060,177335,51.47813505,-0.013339843
Gobowen Rail Station,330320,333400,52.8935148,-3.037172575
Godley Rail Station,396460,394995,53.45170351,-2.054772348
Goodmayes Rail Station,546400,187300,51.56557897,0.110807157
Godstone Rail Station,536277,148357,51.21815745,-0.050084919
Golf Street Rail Station,355800,734200,56.49779378,-2.719543508
Golspie Rail Station,282550,899750,57.97146454,-3.987214904
Gomshall Rail Station,508915,147842,51.21939853,-0.441852116
Goole Rail Station,474414,423753,53.70491434,-0.87421341
Goostrey Rail Station,378300,369550,53.22255212,-2.326470308
Goring & Streatley Rail Station,460247,180642,51.52149275,-1.133049339
Gordon Hill Rail Station,531880,197780,51.66333515,-0.094610431
Gorebridge Rail Station,334560,661279,55.84027352,-3.046515365
Goring-by-Sea Rail Station,510477,103189,50.81772122,-0.433083037
Gorton Rail Station,389064,396939,53.46907381,-2.166209389
Gospel Oak Rail Station,528300,185670,51.55533543,-0.150770107
Gourock Rail Station,224280,677950,55.96231898,-4.816657685
Grange-over-Sands Rail Station,341200,478150,54.19572205,-2.902747303
Gowerton Rail Station,259240,196400,51.64872547,-4.035934551
Goxhill Rail Station,509940,421310,53.6767027,-0.337120413
Grateley Rail Station,426610,141270,51.17005914,-1.620773651
Gravelly Hill Rail Station,410100,290800,52.5149961,-1.852598403
Grays Rail Station,561340,177810,51.47624787,0.321832253
Green Road Rail Station,318930,483920,54.24452515,-3.245570833
Greenock Central Rail Station,228200,675900,55.94533992,-4.752633975
Greenock West Rail Station,227260,676160,55.94733624,-4.767833189
Gretna Green Rail Station,331960,567905,55.00104669,-3.065198011
Georgemas Junction Rail Station,315500,959300,58.51362333,-3.452120205
Gargrave Rail Station,393200,453600,53.97841636,-2.105170377
Garelochhead Rail Station,224250,691050,56.07986406,-4.825716458
Grimsby Docks Rail Station,527520,410357,53.57432146,-0.075617204
Grimsby Town Rail Station,526800,409125,53.56342839,-0.086983869
Grindleford Rail Station,425000,378800,53.30556149,-1.626296665
Greenfaulds Rail Station,275591,673147,55.9352326,-3.993100014
Grosmont Rail Station,482800,505270,54.43611315,-0.724965563
Grange Park Rail Station,531750,195470,51.64260735,-0.097358425
Garston (Herts) Rail Station,511965,199890,51.68661576,-0.381741135
Garston (Merseyside) Rail Station,340600,384800,53.35672842,-2.893929655
Gartcosh Rail Station,270029,667790,55.88566066,-4.07949413
Garth (Bridgend) Rail Station,286400,189900,51.5964556,-3.641449962
Grove Park Rail Station,540640,172145,51.43086312,0.021725567
Gravesend Rail Station,564577,174029,51.44134833,0.36664309
Garscadden Rail Station,252182,668590,55.88769461,-4.365004509
Great Ayton Rail Station,457405,510830,54.48957092,-1.115345183
Great Bentley Rail Station,611198,221460,51.85175987,1.06515357
Great Chesterford Rail Station,550478,242429,52.05981085,0.193521101
Great Coates Rail Station,523900,410420,53.57575398,-0.130230383
Grantham Rail Station,491400,335200,52.90647238,-0.64245023
Great Malvern Rail Station,378300,245700,52.10919865,-2.318270814
Great Missenden Rail Station,489300,201319,51.70351853,-0.709141009
Metrocentre Rail Station,421510,562730,54.95874917,-1.665625884
Gatwick Airport Rail Station,528700,141300,51.15649073,-0.161041455
Guildford Rail Station,499200,149600,51.23697019,-0.580424959
Guiseley Rail Station,418830,442230,53.87593427,-1.7150799
Gunnislake Rail Station,242750,70830,50.51608218,-4.21940555
Gunton Rail Station,625523,335128,52.86634663,1.349116484
Gwersyllt Rail Station,331900,353300,53.07257429,-3.01788807
Gypsy Lane Rail Station,453200,515600,54.53289133,-1.179392034
Habrough Rail Station,514600,413560,53.6060762,-0.269461243
Hackney Central Rail Station,534890,184925,51.54710495,-0.056057533
Hackney Wick Rail Station,537060,184572,51.54341047,-0.024919773
Hadfield Rail Station,402400,396000,53.46074464,-1.965320454
Haddiscoe Rail Station,645842,298493,52.52878733,1.623007272
Hadley Wood Rail Station,526225,198210,51.66849685,-0.176172479
Haddenham & Thame Parkway Rail Station,473091,208549,51.77085523,-0.942137062
Hag Fold Rail Station,367300,404247,53.53385218,-2.494821553
Haggerston Rail Station,533555,183955,51.53870546,-0.075666469
Hagley Rail Station,390140,280510,52.42248975,-2.146417086
Harrogate Rail Station,430413,455336,53.99317683,-1.537607755
Hackney Downs Rail Station,534555,185100,51.54875744,-0.060818937
Hale Rail Station,376990,386930,53.37871759,-2.34735676
Halling Rail Station,570347,164326,51.35247784,0.444931883
Hall Road Rail Station,330468,400600,53.49748577,-3.049627046
Halesworth Rail Station,638868,277868,52.34681654,1.505667534
Halewood Rail Station,344856,385611,53.36447932,-2.830133925
Hammerton Rail Station,447030,455825,53.99632983,-1.284095554
Hamilton Central Rail Station,272200,655200,55.77319351,-4.038884829
Hamilton West Rail Station,271220,655860,55.77885976,-4.054808145
Hampton (London) Rail Station,513300,169803,51.41593438,-0.372118886
Hamstead (Birmingham) Rail Station,404915,292580,52.53106842,-1.928977709
Birkenhead Hamilton Square Rail Station,332690,389130,53.3946935,-3.013679663
Hampton Wick Rail Station,517450,169740,51.41452449,-0.312489461
Hanborough Rail Station,443273,214245,51.82515811,-1.373525414
Hanwell Rail Station,515390,180520,51.51183495,-0.338583426
Hapton Rail Station,379215,431745,53.7816141,-2.316911389
Harlesden Rail Station,520940,183370,51.53628914,-0.257667497
Hairmyres Rail Station,260800,654300,55.76196554,-4.220010825
Harrow-on-the-Hill Rail Station,515314,188012,51.57918562,-0.337225361
Hartford Rail Station,363150,371780,53.24175825,-2.553629421
Harwich Town Rail Station,625987,232397,51.9441454,1.286681923
Haslemere Rail Station,489802,132928,51.08864819,-0.719162568
Hassocks Rail Station,530404,115543,50.92461582,-0.145952981
Hastings Rail Station,581450,109650,50.85789593,0.576741903
Hatfield (Herts) Rail Station,523240,208750,51.76387949,-0.215588532
Hathersage Rail Station,423295,381040,53.32577312,-1.651718605
Hattersley Rail Station,397420,394280,53.44528253,-2.040310538
Hatton (Warks) Rail Station,422400,266400,52.29527782,-1.672975142
Havant Rail Station,471781,106595,50.85442708,-0.981611424
Havenhouse Rail Station,552240,359890,53.11446842,0.273167505
Haverfordwest Rail Station,196000,215700,51.80263207,-4.960203208
Hawarden Rail Station,331130,365860,53.18535856,-3.032080733
Hawarden Bridge Rail Station,331140,369500,53.21807398,-3.032717443
Hayes & Harlington Rail Station,509714,179422,51.50309561,-0.420683476
Hayle Rail Station,155970,37325,50.18556272,-5.419836211
Haymarket Rail Station,324000,673200,55.94580779,-3.218449447
Hayes (Kent) Rail Station,540030,166060,51.37633385,0.010556791
Hazel Grove Rail Station,391980,386750,53.3775431,-2.122019352
Hebden Bridge Rail Station,399500,426800,53.73758749,-2.009058707
Hollingbourne Rail Station,583430,155060,51.26517892,0.627848294
High Brooms Rail Station,559378,141370,51.14940496,0.277332296
Hubberts Bridge Rail Station,526970,343670,52.97535291,-0.110528684
Hartlebury Rail Station,385030,270735,52.33449497,-2.221118903
Holmes Chapel Rail Station,376640,366930,53.19893105,-2.351139788
Heckington Rail Station,514650,343580,52.97731772,-0.293944357
Hampton Court Rail Station,515376,168361,51.40255567,-0.342747653
Hednesford Rail Station,399977,312494,52.71011128,-2.001777938
Hendon Rail Station,522140,188270,51.58006796,-0.238674063
Huddersfield Rail Station,414330,416910,53.6485023,-1.784690194
Headcorn Rail Station,583800,144000,51.16571425,0.627481845
Healing Rail Station,521870,411040,53.58179889,-0.160629849
Heath High Level Rail Station,318111,180385,51.51643041,-3.181541429
Heath Low Level Rail Station,318080,180300,51.5156618,-3.181968302
Hedge End Rail Station,449674,115000,50.93231954,-1.294503318
Headingley Rail Station,426815,435820,53.81797396,-1.594188004
Headstone Lane Rail Station,513870,190590,51.60264899,-0.357219764
Hellifield Rail Station,385166,457229,54.01086242,-2.227844612
Helmsdale Rail Station,302380,915475,58.11743877,-3.658687575
Helsby Rail Station,348670,375635,53.27520136,-2.771206612
Hemel Hempstead Rail Station,504300,205925,51.74233298,-0.490773743
Hengoed Rail Station,315400,195000,51.64740881,-3.22412792
Henley-in-Arden Rail Station,414830,265950,52.29148716,-1.78399102
Hensall Rail Station,458560,422820,53.69854481,-1.114518633
Hereford Rail Station,351543,240546,52.0611622,-2.708210181
Herne Hill Rail Station,531955,174410,51.45330504,-0.102289092
Hersham Rail Station,512155,165425,51.37681205,-0.389959186
Hertford East Rail Station,532980,212910,51.79903486,-0.072941347
Hessle Rail Station,502925,425685,53.71743801,-0.441823121
Heswall Rail Station,328590,381960,53.32971706,-3.073702728
Hever Rail Station,546530,144550,51.18141115,0.095069412
Heworth Rail Station,428550,561970,54.95156812,-1.555766104
Hexham Rail Station,394030,564320,54.97345905,-2.094794575
Heyford Rail Station,448290,224750,51.91919029,-1.29926997
Heysham Port Rail Station,340290,460070,54.03314385,-2.913114322
Hertford North Rail Station,531681,212856,51.7988567,-0.091788468
Hatfield Peverel Rail Station,578910,212200,51.77986438,0.592123816
Highbridge & Burnham-on-Sea Rail Station,332200,147000,51.21815678,-2.972153421
Highbury & Islington Rail Station,531585,184735,51.54617715,-0.103763638
Highams Park Rail Station,538575,191840,51.60835018,-0.000222186
Heighington Rail Station,427120,522500,54.59696036,-1.581765064
Highbury & Islington Rail Station,531585,184725,51.54608729,-0.103767375
Higham Rail Station,571556,172613,51.42655912,0.466277808
Hillside Rail Station,332320,414440,53.6221061,-3.024716377
Hilsea Rail Station,466385,103615,50.8282766,-1.05879733
Hinckley Rail Station,442700,293200,52.53499849,-1.371923215
Hindley Rail Station,361960,405220,53.54223673,-2.575501647
Hinton Admiral Rail Station,420263,94821,50.75264004,-1.714126522
Hitchin Rail Station,519433,229734,51.95328253,-0.263480765
Hightown Rail Station,330020,403680,53.52510579,-3.057067946
Hall i' th' Wood Rail Station,372757,411285,53.59742273,-2.413109661
Hackbridge Rail Station,528580,165930,51.3778718,-0.153907477
Heald Green Rail Station,384350,385865,53.36941569,-2.23666734
Hildenborough Rail Station,555680,148500,51.21448616,0.227589989
Hillfoot Rail Station,255100,672100,55.92009248,-4.320274154
Halifax Rail Station,409760,424960,53.72096069,-1.853574717
Hall Green Rail Station,410590,282115,52.43690935,-1.845650854
Holmwood Rail Station,517465,143780,51.18119572,-0.320808911
Hillington East Rail Station,252680,664840,55.8541825,-4.355010235
Hillington West Rail Station,251650,665080,55.85602118,-4.37158001
Helensburgh Central Rail Station,229700,682400,56.00420813,-4.732757817
Helensburgh Upper Rail Station,229920,683300,56.01236324,-4.729804013
Haltwhistle Rail Station,370420,563790,54.9678491,-2.463564972
Holyhead Rail Station,224800,382200,53.30768385,-4.631002428
Hamble Rail Station,447300,108200,50.87137461,-1.329162026
Hampden Park (Sussex) Rail Station,560733,102125,50.79640596,0.279355881
Humphrey Park Rail Station,378346,395102,53.45222829,-2.327537705
Hampstead Heath Rail Station,527265,185630,51.55521018,-0.165705344
Hampton-in-Arden Rail Station,420500,281270,52.42903313,-1.699930559
Ham Street Rail Station,600090,133770,51.0683786,0.854506444
Hamworthy Rail Station,398730,91730,50.72519185,-2.019356963
Hinchley Wood Rail Station,515600,165300,51.37499827,-0.340524463
Handforth Rail Station,385875,383310,53.34649322,-2.213633294
The Hawthorns Rail Station,402540,289720,52.50537306,-1.964008847
Harrington Rail Station,298995,525385,54.6134845,-3.565514657
Henley-on-Thames Rail Station,476380,182270,51.5341801,-0.900212153
Huntly Rail Station,353537,839618,57.4444883,-2.775740006
Huntingdon Rail Station,523300,271600,52.32864895,-0.192067979
Hockley Rail Station,584237,192762,51.60355623,0.659001199
Hollinwood Rail Station (closed),390372,402616,53.52012669,-2.146681835
Holton Heath Rail Station,394600,90200,50.71140854,-2.07784478
Holytown Rail Station,276400,659500,55.81289803,-3.973928913
Homerton Rail Station,535840,184940,51.54701206,-0.042359753
Honiton Rail Station,316460,100340,50.79658114,-3.186717847
Honley Rail Station,414590,412430,53.60822828,-1.780965299
Honor Oak Park Rail Station,535910,174145,51.44998899,-0.045505372
Honeybourne Rail Station,411485,244820,52.10160039,-1.833742704
Hook Rail Station,472520,153940,51.27999824,-0.961635707
Hooton Rail Station,334980,378250,53.29719883,-2.977009287
Hope (Flintshire) Rail Station,330700,358300,53.11735746,-3.036875792
Hope (Derbyshire) Rail Station,418080,383280,53.34611016,-1.729886717
Hopton Heath Rail Station,338030,277435,52.39141585,-2.912059612
Horden Peterlee Station,444667,541214,54.7638817,-1.307342907
Horley Rail Station,528665,142666,51.16877532,-0.161053504
Horsham Rail Station,517865,130980,51.06606497,-0.31926942
Horwich Parkway Rail Station,364365,409192,53.57810593,-2.539665945
Hoscar Rail Station,346860,411545,53.59776816,-2.804420875
Hough Green Rail Station,348530,386450,53.37239136,-2.775065937
Hounslow Rail Station,513870,174935,51.46194613,-0.362276878
Hove Rail Station,528912,105559,50.83521636,-0.17068732
Howden Rail Station,475215,430420,53.76471123,-0.860463003
Howwood (Renfrewshire) Rail Station,239480,660450,55.81056429,-4.563057999
How Wood (Herts) Rail Station,514449,203409,51.71774213,-0.344670375
Hoxton Rail Station,533575,183155,51.53151167,-0.075681494
Hoylake Rail Station,321700,388800,53.39021032,-3.178830788
Harringay Rail Station,531400,188200,51.57735827,-0.105136058
Harringay Green Lanes Rail Station,531885,188193,51.57718221,-0.098143697
Harlech Rail Station,258100,331400,52.86132858,-4.10919048
Harold Wood Rail Station,554785,190575,51.59276614,0.233128694
Harlington (Beds) Rail Station,503456,230355,51.96206206,-0.495689862
Harling Road Rail Station,597770,287950,52.4536899,0.909142404
Harlow Mill Rail Station,547160,212340,51.79036546,0.132307641
Harlow Town Rail Station,544626,211232,51.78107034,0.095131882
Hornbeam Park Rail Station,431130,453860,53.97986894,-1.52682225
Herne Bay Rail Station,617130,167450,51.36459303,1.117725975
Hornsey Rail Station,530900,189200,51.58646095,-0.111974984
Harrow & Wealdstone Rail Station,515465,189460,51.59216868,-0.3345714
Harrow & Wealdstone Rail Station,515465,189461,51.59217767,-0.334571071
Harpenden Rail Station,513735,214175,51.81464489,-0.351480451
Horsley Rail Station,509223,154518,51.27934698,-0.435408596
Harrietsham Rail Station,586620,152910,51.24483287,0.672399446
Hurst Green Rail Station,539970,151380,51.24443068,0.003939409
Hartlepool Rail Station,451200,532700,54.68675549,-1.207316189
Hartwood Rail Station,284830,659110,55.81148069,-3.839321875
Horsforth Rail Station,424425,439115,53.84770571,-1.630228366
Hatch End Rail Station,513065,191325,51.60941693,-0.368601364
Heaton Chapel Rail Station,388200,392100,53.42555991,-2.179041507
Hatfield & Stainforth Rail Station,464745,410680,53.58871533,-1.023377232
Hither Green Rail Station,539000,174455,51.45202528,-0.000944168
Hutton Cranswick Rail Station,502865,452220,53.95585502,-0.433861512
Horton-in-Ribblesdale Rail Station,380370,472660,54.14938594,-2.302032671
Heathrow Terminals 2 & 3 Rail Station,507468,175898,51.47185225,-0.454101551
Heathrow T1 Rail-Air Link,507651,176044,51.47312978,-0.451423378
Heathrow T2 Rail-Air Link,507628,175732,51.47032982,-0.451849329
Heathrow T3 Rail-Air Link,507221,175923,51.47212376,-0.457648813
Heathrow Terminal 4 Rail Station,508100,174400,51.45826766,-0.445463396
Heathrow Terminal 5 Rail Station,504938,175645,51.47005255,-0.490588967
Hucknall Rail Station,454020,349303,53.03828406,-1.195811466
Hull Rail Station,509200,428800,53.74415039,-0.345679953
Huncoat Rail Station,377190,430660,53.77177709,-2.347561331
Hungerford Rail Station,434014,168545,51.41491026,-1.512286971
Hunmanby Rail Station,510115,476660,54.17392577,-0.314556742
Hunts Cross Rail Station,343139,385212,53.36071099,-2.855860957
Huyton Rail Station,344060,390650,53.40968404,-2.842988827
Hawkhead Rail Station,249890,663600,55.84219036,-4.398850861
High Wycombe Rail Station,486935,193053,51.62958597,-0.745409812
Haydon Bridge Rail Station,384250,564535,54.97517572,-2.247587691
Hyde Central Rail Station,394436,395017,53.45188333,-2.085250129
Hyde North Rail Station,394424,396454,53.46479962,-2.085456835
Haydons Road Rail Station,526020,171160,51.42544795,-0.188814631
Hykeham Rail Station,493615,367350,53.19500504,-0.600196396
Hyndland Rail Station,255300,667600,55.87975405,-4.314668425
Haywards Heath Rail Station,533045,124630,51.00568169,-0.105077702
IBM (Greenock) Rail Station,223470,674320,55.92944702,-4.827239999
Ifield Rail Station,525053,136663,51.1156229,-0.214772077
Newbury Park Station,544906,188310,51.57503973,0.089683981
Ilford Rail Station,543570,186500,51.55911753,0.069679534
Ilkeston Rail Station,447438,342704,52.97959198,-1.294931783
Ilkley Rail Station,411785,447640,53.92476431,-1.82202749
Ince (Manchester) Rail Station,359570,404870,53.53891193,-2.611519662
Ince & Elton Rail Station,345650,375825,53.27660749,-2.816522306
Ingatestone Rail Station,564982,199165,51.66704308,0.384246826
Insch Rail Station,362950,827610,57.33749853,-2.617112196
Inverkip Rail Station,220530,671840,55.90610443,-4.872586144
Invergowrie Rail Station,334930,729870,56.4564733,-3.057397714
Invershin Rail Station,257985,895356,57.92486909,-4.399477835
Inverurie Rail Station,377580,821800,57.28626722,-2.373559531
Ipswich Rail Station,615700,243800,52.05059234,1.14442571
Irlam Rail Station,371315,393146,53.43430993,-2.433230128
Irvine Rail Station,231600,638500,55.61087413,-4.675145434
Isleworth Rail Station,515600,176400,51.47476282,-0.336906726
Islip Rail Station,452600,214400,51.82575326,-1.238181636
Iver Rail Station,503730,179898,51.50850282,-0.50672595
Invergordon Rail Station,270443,868656,57.68901851,-4.174840373
Inverkeithing Rail Station,313100,683300,56.03467705,-3.39618688
Inverness Rail Station,266788,845473,57.47986986,-4.223361021
Ivybridge Rail Station,264745,56570,50.39341218,-3.904204129
James Cook Rail Station,451288,517708,54.55203053,-1.208569349
Liverpool James Street Rail Station,334150,390230,53.40476383,-2.99195764
Johnston (Pembrokeshire) Rail Station,193300,210700,51.7567467,-4.996328276
Johnstone Rail Station,243300,663000,55.83470868,-4.503637257
Jordanhill Rail Station,254670,667950,55.88270646,-4.324917862
Kirkcaldy Rail Station,327524,691647,56.11205808,-3.167028338
Kidderminster Rail Station,383866,276299,52.38448245,-2.238470727
Kearsley Rail Station,375240,405343,53.54413913,-2.375119644
Keighley Rail Station,406565,441310,53.86796289,-1.901649475
Keith Rail Station,343000,851600,57.55089916,-2.954068798
Kelvedon Rail Station,586264,219241,51.84070232,0.702385687
Kemble Rail Station,398519,197581,51.67699556,-2.022817084
Kemsing Rail Station,556784,157738,51.29718715,0.247428424
Kendal Rail Station,352000,493200,54.33209589,-2.739646585
Kennishead Rail Station,254390,660230,55.81331572,-4.325246158
Kenilworth Rail Station,429205,271711,52.34270528,-1.572738228
Kennett Rail Station,570002,267267,52.27726423,0.490464522
Kensington (Olympia) Rail Station,524325,179180,51.49789881,-0.210364061
Kensal Rise Rail Station,523560,183240,51.534554,-0.219957037
Kensal Green Rail Station,523215,182785,51.5305402,-0.225087586
Kent House Rail Station,536040,169945,51.41221522,-0.045247369
Kettering Rail Station,486411,278038,52.39355499,-0.731562198
Kew Bridge Rail Station,519020,178120,51.48951286,-0.28710755
Kew Gardens Rail Station,519195,176740,51.47707334,-0.285053514
Keyham Rail Station,245160,56715,50.3898799,-4.179599195
Keynsham Rail Station,365631,168890,51.41797696,-2.49562891
Kinghorn Rail Station,327000,686900,56.06933753,-3.17415408
Kings Park Rail Station,259345,660760,55.81954307,-4.246516946
Kingston Rail Station,518242,169561,51.41275125,-0.301165709
Kingussie Rail Station,275700,800400,57.07778173,-4.052192198
Kingswood Rail Station,524815,156585,51.29472472,-0.211247482
Kidbrooke Rail Station,540945,175632,51.4621213,0.027497625
Kidsgrove Rail Station,383700,354400,53.08656537,-2.244815835
Kidwelly Rail Station,240100,206500,51.7343418,-4.316985475
Kildonan Rail Station,290150,921740,58.17080946,-3.869106085
Kilgetty Rail Station,212600,207200,51.73210646,-4.715155706
Kilmarnock Rail Station,242717,638224,55.61211761,-4.498684757
Kilwinning Rail Station,229600,643600,55.65595119,-4.710018613
Kinbrace Rail Station,286190,931600,58.25831268,-3.941207927
Kingham Rail Station,425637,222699,51.90224962,-1.628786187
Kings Sutton Rail Station,449439,236125,52.02135132,-1.280930547
Kintore Railway Station,378961,817033,57.24351285,-2.350244228
Kirby Cross Rail Station,621566,220753,51.84139789,1.214992705
Kirkham & Wesham Rail Station,341925,432650,53.78691524,-2.882940792
Kirkby Rail Station,340190,399210,53.48619069,-2.902829201
Kirk Sandall Rail Station,461426,407872,53.56387811,-1.074061027
Kilburn High Road Rail Station,525475,183590,51.53727747,-0.19223742
Kildale Rail Station,460480,509555,54.47775758,-1.068143423
Kings Langley Rail Station,508000,202000,51.70635588,-0.43842187
Kilmaurs Rail Station,240816,641088,55.63720792,-4.53049038
Kilpatrick Rail Station,246800,672900,55.92470139,-4.453411958
Kings Lynn Rail Station,562301,320076,52.753924,0.403446683
Kempston Hardwick Rail Station,502593,244819,52.09221834,-0.503913755
Kempton Park Rail Station,510671,170307,51.42098315,-0.409751255
Kemsley Rail Station,590526,166148,51.36244027,0.735357804
Knockholt Rail Station,548500,162900,51.34578955,0.130847144
Knebworth Rail Station,524908,220250,51.86685484,-0.187288712
Kingsknowe Rail Station,321040,670248,55.91881345,-3.264966173
London Kings Cross Rail Station,530300,183000,51.53088334,-0.122925911
Knighton Rail Station,329100,272400,52.34507262,-3.042195702
Kenley Rail Station,532420,160120,51.32477694,-0.100925342
Kings Norton Rail Station,404700,279590,52.41429066,-1.932325728
Knaresborough Rail Station,434805,457130,54.00902377,-1.470416159
London Kings Cross Thameslink Rail Station,530480,182980,51.53066208,-0.120339849
Kintbury Rail Station,438635,167200,51.40252198,-1.445988845
Knottingley Rail Station,449000,423600,53.70653732,-1.259178147
Kentish Town Rail Station,529035,185150,51.5504949,-0.140364908
Kentish Town West Rail Station,528610,184700,51.54654784,-0.146655437
Knucklas Rail Station,325400,274100,52.35986148,-3.096877419
Knutsford Rail Station,375320,378380,53.30179054,-2.371790607
Kings Nympton Rail Station,266212,116910,50.93607409,-3.905410699
Kirkby-in-Furness Rail Station,322700,482540,54.2327093,-3.187375703
Kirkconnel Rail Station,273500,612300,55.38830332,-3.998500278
Kirkdale Rail Station,334926,394240,53.44089892,-2.981116813
Kirkhill Rail Station,264300,659975,55.81391346,-4.167104667
Kirknewton Rail Station,310500,667100,55.88869087,-3.432511588
Kirkstall Forge Rail Station,424949,436449,53.8237197,-1.622479269
Kirkwood Rail Station,271870,664230,55.85418848,-4.048398256
Kirkby in Ashfield Rail Station,450110,356138,53.10009881,-1.253056631
Kirton Lindsey Rail Station,493400,399600,53.48483993,-0.593913356
Kearsney Rail Station,628938,143992,51.14937566,1.272061449
Kirkby Stephen Rail Station,376200,506670,54.454857,-2.368596596
Kents Bank Rail Station,339700,475630,54.17290233,-2.925229186
Kenton Rail Station,516710,188335,51.58180154,-0.316980853
Kiveton Bridge Rail Station,448890,382923,53.34095789,-1.267179358
Kiveton Park Rail Station,450715,382470,53.33671499,-1.239844501
Kings Cross Thameslink Rail Station,530481,182980,51.53066185,-0.120325441
Kyle of Lochalsh Rail Station,176247,827123,57.27977227,-5.71381265
Ladybank Rail Station,330600,709600,56.27378152,-3.122275155
Laindon Rail Station,568118,188190,51.56752359,0.42428902
Lairg Rail Station,258265,903922,58.00182928,-4.399888814
Lake (Isle of Wight) Rail Station,459038,83308,50.64647691,-1.166348471
Lakenheath Rail Station,572390,286293,52.44740072,0.535197728
Gilshochill Rail Station,257365,669490,55.89733792,-4.282684454
Lamphey Rail Station,201400,200400,51.66718654,-4.87325631
Lanark Rail Station,288575,643660,55.67360739,-3.773290221
Lancaster Rail Station,347230,461720,54.04872996,-2.8074576
Llandudno Junction Rail Station,279488,377857,53.28394384,-3.809101849
Llanfairfechan Rail Station,267800,375200,53.25728733,-3.983202598
Langley (Berks) Rail Station,501300,179800,51.50806229,-0.541756088
Lapford Rail Station,272655,107950,50.85700257,-3.810638822
Lapworth Rail Station,418785,271610,52.34225099,-1.725691222
Larbert Rail Station,286000,682600,56.0227041,-3.830580677
Largs Rail Station,220344,659215,55.79274324,-4.867197502
Larkhall Rail Station,276065,651235,55.73859532,-3.975511643
Lawrence Hill Rail Station,360881,173377,51.45801127,-2.564429694
Layton (Lancs) Rail Station,332315,438160,53.8352679,-3.029990459
Lazonby & Kirkoswald Rail Station,354835,539725,54.75043672,-2.703208614
Llanbedr Rail Station,257900,326900,52.82085095,-4.110197412
Loughborough Junction Rail Station,531925,175855,51.46629765,-0.102182003
Loch Eil Outward Bound Rail Station,205500,778300,56.85526777,-5.191576525
Lochailort Rail Station,176900,782600,56.88096341,-5.663394946
Lichfield City Rail Station,411900,309175,52.68014656,-1.825419686
Locheilside Rail Station,199500,778600,56.85540694,-5.290036453
Lochgelly Rail Station,318500,694400,56.13532964,-3.312939734
Lochluichart Rail Station,232335,862562,57.6217569,-4.809048801
Lichfield Trent Valley High Level Rail Station,413600,309930,52.68689406,-1.800243682
Lichfield Trent Valley Rail Station,413601,309930,52.68689403,-1.800228889
Lochwinnoch Rail Station,236060,657970,55.78715596,-4.616075272
Lockerbie Rail Station,313780,581800,55.12305313,-3.353532815
Ledbury Rail Station,370890,238625,52.04525017,-2.425860299
Lidlington Rail Station,498936,239106,52.04153646,-0.558928319
Ladywell Rail Station,537730,174890,51.45624432,-0.019040611
Lea Bridge Rail Station,536176,187123,51.5665478,-0.036672527
Leagrave Rail Station,506145,224080,51.90515899,-0.458502573
Lea Hall Rail Station,414630,286990,52.4806429,-1.786011809
Lealholm Rail Station,476220,507880,54.46059185,-0.825715251
Leasowe Rail Station,327000,390700,53.40804575,-3.099593702
Leeds Rail Station,429870,433352,53.79562656,-1.548025507
Lee Rail Station,540010,174230,51.44975481,0.013492875
Lea Green Rail Station,351924,392469,53.42680955,-2.724977496
Leigh (Kent) Rail Station,554555,146175,51.19390087,0.210495012
Lelant Rail Station,154770,37220,50.18412436,-5.436546673
Lelant Saltings Rail Station,154430,36640,50.17877664,-5.440925785
Lenham Rail Station,589130,151850,51.2344861,0.707759119
Lenzie Rail Station,265500,671900,55.9213183,-4.153890434
Leominster Rail Station,350210,258860,52.22568191,-2.730341063
Leicester Rail Station,459300,304100,52.63142515,-1.125275449
Leatherhead Rail Station,516300,156840,51.29881782,-0.333231899
Leuchars Rail Station,344900,720670,56.37510263,-2.893713049
Lewes Rail Station,541621,109830,50.87063202,0.0113306
Lewisham Rail Station,538050,175950,51.46569174,-0.01402434
Leyland Rail Station,354730,422710,53.69885449,-2.687145091
Leyton Midland Road Rail Station,538150,187530,51.56972537,-0.008050551
Llanfairpwll Rail Station,252600,371600,53.22094505,-4.20921534
Langbank Rail Station,238562,673180,55.92451952,-4.585274519
Longfield Rail Station,560129,168857,51.39615525,0.300364242
Langho Rail Station,370550,434375,53.8048318,-2.448659005
Langley Mill Rail Station,444960,346960,53.01806031,-1.33124437
Langley Green Rail Station,399760,288440,52.49387123,-2.004964042
Langwith - Whaley Thorns Rail Station,452880,370885,53.23237902,-1.209258735
Lingwood Rail Station,636317,308423,52.62210207,1.489944609
Leigh-on-Sea Rail Station,583200,185790,51.54127325,0.640411386
Littlehaven Rail Station,518621,132520,51.07975123,-0.307980459
Limehouse Rail Station,536120,181111,51.51253669,-0.039802784
Lincoln Central Rail Station,497571,370888,53.22608715,-0.539921865
Lingfield Rail Station,539400,143800,51.17645277,-0.007164547
Liphook Rail Station,484156,130905,51.07131622,-0.800228403
Liskeard Rail Station,224760,63695,50.44686461,-4.469575045
Liss Rail Station,477712,127718,51.04357108,-0.892867095
Littleborough Rail Station,393840,416280,53.64299524,-2.094651354
London Liverpool Street Rail Station,533216,181641,51.51799103,-0.081425944
Lockwood Rail Station,413270,415375,53.63473324,-1.800790742
Llandaf Rail Station,314830,179550,51.50843847,-3.228612299
Llanbradach Rail Station,314700,190100,51.60325592,-3.233047578
Llanbister Road Rail Station,317420,271620,52.33642508,-3.213420759
Llandeilo Rail Station,263350,222620,51.88534434,-3.986889804
Llandrindod Rail Station,305930,261360,52.24235966,-3.379137948
Llandovery Rail Station,276320,234520,51.99531246,-3.802828856
Llandybie Rail Station,262000,215500,51.82103547,-4.003647267
Llangadog Rail Station,269960,228550,51.94021305,-3.893147026
Llangammarch Rail Station,293630,247360,52.11429841,-3.554816574
Llangennech Rail Station,256400,201200,51.69113616,-4.078929386
Llangynllo Rail Station,320990,273030,52.34962514,-3.161369198
Llanharan Rail Station,300170,183060,51.53758574,-3.440778279
Abertillery High Street,321690,204100,51.73012494,-3.135283187
Llanhilleth Rail Station,321645,200783,51.70030092,-3.135187587
Llanishen Rail Station,318110,182200,51.53274623,-3.181978335
Llanelli Rail Station,250650,199445,51.67386667,-4.161303489
Llansamlet Rail Station,269740,197540,51.6615026,-3.88468523
Llantwit Major Rail Station,297050,168900,51.40974776,-3.481617178
Llanwrda Rail Station,271500,231000,51.96258673,-3.871673864
Llanwrtyd Rail Station,288310,246410,52.10471089,-3.632163351
Llwynypia Rail Station,299500,193800,51.63400256,-3.453513446
Leamington Spa Rail Station,431735,265251,52.28449039,-1.536209994
Lymington Pier Rail Station,433287,95517,50.75830046,-1.529446891
Lymington Town Rail Station,432741,95804,50.76091221,-1.537161968
Llanaber Rail Station,259870,318010,52.741503,-4.077175738
Lancing Rail Station,518200,104400,50.82708328,-0.323109187
Llandecwyn Rail Station,261800,337900,52.92068484,-4.057034676
London Bridge Rail Station,532930,180190,51.50501904,-0.086092005
London Bridge Rail Station,532930,180200,51.5051089,-0.086088239
Llandanwg Rail Station,257030,328630,52.83616179,-4.123856698
Landywood Rail Station,398695,306535,52.65654014,-2.020727684
Long Buckby Rail Station,462400,266680,52.2947162,-1.086466763
Longcross Rail Station,497897,166062,51.38517284,-0.594569926
Long Eaton Rail Station,448040,332185,52.88498773,-1.287520501
Longniddry Rail Station,344660,676300,55.97648434,-2.888343048
Longport Rail Station,385585,349423,53.04188173,-2.216447847
Linlithgow Rail Station,300510,677090,55.97645236,-3.595852126
Llanrwst Rail Station,280063,361693,53.13885027,-3.794401044
Langside Rail Station,257420,661000,55.82113298,-4.277340056
Longton Rail Station,390900,343633,52.98995275,-2.137010561
Loch Awe Rail Station,212380,727460,56.4020161,-5.041975372
Loughborough (Leics) Rail Station,454335,320455,52.7789545,-1.195928485
Longbridge Rail Station,401370,277600,52.39641819,-1.981291531
London Fields Rail Station,534790,184260,51.54115298,-0.057753292
Longbeck Rail Station,462750,521990,54.58921807,-1.030472859
Looe Rail Station,225390,53920,50.35922537,-4.456163726
Lostock Rail Station,367367,408594,53.57292715,-2.494266093
Lowdham Rail Station,467305,345910,53.00628486,-0.998418983
Low Moor Rail Station,416359,428201,53.74992698,-1.753403849
Lowestoft Rail Station,654747,292890,52.47443783,1.749708046
Long Preston Rail Station,383350,457900,54.01683729,-2.255591971
London Road (Guildford) Rail Station,500264,150030,51.24064971,-0.565068894
Laurencekirk Rail Station,371670,771750,56.83634687,-2.465925563
Lostock Gralam Rail Station,369070,374620,53.26766467,-2.465202982
Lostock Hall Rail Station,354735,425535,53.72424443,-2.68748334
Lostwithiel Rail Station,210660,59765,50.40717781,-4.665965773
Lower Sydenham Rail Station,536830,171370,51.42483076,-0.033345404
Letchworth Rail Station,521712,232758,51.979964,-0.229264082
Lisvane & Thornhill Rail Station,317880,183520,51.54457888,-3.1856018
Littlehampton Rail Station,502540,102180,50.8101089,-0.545994745
Little Kimble Rail Station,482349,206620,51.75223182,-0.808452336
Littleport Rail Station,557480,287460,52.46238052,0.316559324
Little Sutton Rail Station,337210,376920,53.28551486,-2.943292387
Leighton Buzzard Rail Station,491091,225024,51.91630577,-0.67700729
Ludlow Rail Station,351335,275045,52.37127831,-2.716216818
Llandudno Rail Station,278400,382000,53.32091647,-3.82700117
Luton Airport Parkway Rail Station,510533,220534,51.87243756,-0.395880936
Luton Rail Station,509259,221604,51.88230485,-0.414040142
Luxulyan Rail Station,204805,58070,50.39003539,-4.747383893
Levenshulme Rail Station,387300,394172,53.44416288,-2.192669656
Livingston North Rail Station,303537,668663,55.90138364,-3.544350852
Livingston South Rail Station,306140,665300,55.87169301,-3.501569147
Liverpool Central Rail Station,335000,390200,53.40459976,-2.979168109
Liverpool Central Loop Line,335001,390200,53.40459988,-2.97915307
Liverpool Lime Street Rail Station,335100,390500,53.40730825,-2.977726028
Liverpool Lime Street Low Level Rail Station,335100,390600,53.40820698,-2.977746643
Liverpool South Parkway Rail Station,340920,384909,53.35774398,-2.889142788
Langwathby Rail Station,357320,533460,54.69435743,-2.663683692
Lydney Rail Station,363420,201845,51.71413581,-2.53086367
Lye (West Midlands) Rail Station,392220,284670,52.45992213,-2.115929236
Lympstone Commando Rail Station,298260,85720,50.66223744,-3.440839706
Lympstone Village Rail Station,298925,84156,50.64829308,-3.431006606
Ashurst New Forest Rail Station,433392,110147,50.88985038,-1.526630693
Llwyngwril Rail Station,258920,309720,52.66678147,-4.087678958
Lytham Rail Station,336510,427420,53.7392812,-2.964039644
Leytonstone High Road Rail Station,539310,186875,51.5635545,0.008416476
Macclesfield Rail Station,391960,373600,53.25934192,-2.121981767
Maesteg (Ewenny Road) Rail Station,285900,190900,51.60534202,-3.648990925
Maesteg Rail Station,285520,191420,51.60993835,-3.65464559
Maghull Rail Station,338360,401490,53.50647001,-2.930852921
Malden Manor Rail Station,521090,166510,51.38473,-0.261273906
Malton Rail Station,478690,471360,54.13207595,-0.797222039
Manea Rail Station,547928,291110,52.49783882,0.177693752
Manningtree Rail Station,609374,232220,51.94905152,1.045240014
Manors Rail Station,425400,564310,54.97276497,-1.604740937
Manor Park Rail Station,541973,185716,51.55247666,0.046341622
Marden Rail Station,574375,144725,51.17517583,0.493169351
Margate Rail Station,634720,170550,51.38542891,1.372003433
Marlow Rail Station,485590,186512,51.57099342,-0.766430699
Marne-la-Valle Rail Station,637860,136000,51.0740024,1.394131106
Marple Rail Station,396290,389320,53.4006925,-2.057263306
